{"iso_code":"AFG","generated_at":"2026-06-02T15:36:55-03:00","gas":"co2e_100yr","sectors":["power","fossil-fuel-operations","manufacturing","mineral-extraction"],"assets":[{"id":14855,"name":"Shadashak Coal Mine","sector":"coal-mining","type":"Underground","lon":67.59667,"lat":35.86326,"emissions":523223.3},{"id":42547337,"name":"Jabal Saraj Cement Plant","sector":"cement","type":"integrated wet","lon":69.23953,"lat":35.12801,"emissions":254040.5},{"id":53058442,"name":"Afghanistan_Amu-Dar'ya_Conventional onshore","sector":"oil-and-gas-production","type":"","lon":65.83878,"lat":36.51667,"emissions":223638.5},{"id":3162256,"name":"Dahna Toor Coal Mine","sector":"coal-mining","type":"Underground","lon":67.3122,"lat":35.70499,"emissions":142791.2},{"id":3143714,"name":"Ghazanfar Oil Refinery","sector":"oil-and-gas-refining","type":"Hydroskimming","lon":67.40827,"lat":37.20814,"emissions":137387.2},{"id":42547296,"name":"Afghan Cement Ghori I Cement Plant","sector":"cement","type":"integrated wet","lon":68.6873,"lat":35.96579,"emissions":127020.2},{"id":32437194,"name":"Afghan Cement Ghori II Cement Plant","sector":"cement","type":"integrated wet","lon":68.68645,"lat":35.96899,"emissions":127020.2},{"id":53059285,"name":"Afghanistan_Amu-Dar'ya_Conventional onshore","sector":"oil-and-gas-transport","type":"","lon":65.83878,"lat":36.51667,"emissions":94425.6},{"id":5532,"name":"Tarakhil power station","sector":"electricity-generation","type":"oil","lon":69.2948,"lat":34.5616,"emissions":28764.0},{"id":3162259,"name":"Tala Wa Barfak Coal Mine","sector":"coal-mining","type":"Underground","lon":68.12,"lat":35.33194,"emissions":16799.0},{"id":49529246,"name":"North West Kabul thermal power plant","sector":"electricity-generation","type":"oil, other_fossil","lon":69.3076,"lat":34.7181,"emissions":11984.4},{"id":3162257,"name":"Garmak Project Coal Mine","sector":"coal-mining","type":"Underground","lon":67.308,"lat":35.733,"emissions":6719.6}]}