{"iso_code":"AGO","generated_at":"2026-06-02T15:36:55-03:00","gas":"co2e_100yr","sectors":["power","fossil-fuel-operations","manufacturing","mineral-extraction"],"assets":[{"id":1895085,"name":"Mazozo Cement Plant","sector":"cement","type":"integrated dry","lon":13.56747,"lat":-9.1001,"emissions":1442492.3},{"id":1895082,"name":"Cacuaco Cement Plant","sector":"cement","type":"integrated dry","lon":13.42621,"lat":-8.8013,"emissions":1163174.7},{"id":452522,"name":"Soyo power station","sector":"electricity-generation","type":"other_fossil, gas","lon":12.3255,"lat":-6.1818,"emissions":776240.0},{"id":53058475,"name":"Angola_Lower Congo_Conventional onshore","sector":"oil-and-gas-production","type":"","lon":13.0,"lat":-6.1,"emissions":564017.0},{"id":1895084,"name":"Sumbe Cement Plant","sector":"cement","type":"integrated dry","lon":14.02885,"lat":-11.18393,"emissions":561117.2},{"id":42740981,"name":"Aceria Angola Bengo steel plant","sector":"iron-and-steel","type":"BF/BOF","lon":13.40524,"lat":-8.5826,"emissions":541500.0},{"id":1753404,"name":"Sonangol Luanda Refinery","sector":"oil-and-gas-refining","type":"Medium Conversion","lon":13.29806,"lat":-8.77984,"emissions":463707.4},{"id":25450693,"name":"Cazenga power station","sector":"electricity-generation","type":"oil","lon":13.3081,"lat":-8.8145,"emissions":294940.0},{"id":25455088,"name":"Central Caminho de Ferro de Luanda (CFL) power station","sector":"electricity-generation","type":"oil","lon":13.2769,"lat":-8.8282,"emissions":188310.0},{"id":25454070,"name":"SOYO LNG PLANT","sector":"electricity-generation","type":"gas","lon":12.3363,"lat":-6.1192,"emissions":167110.0},{"id":25454782,"name":"Fútila power station","sector":"electricity-generation","type":"oil","lon":12.21,"lat":-5.3684,"emissions":159020.0},{"id":4407501,"name":"Central de Quileva power plant","sector":"electricity-generation","type":"oil","lon":13.5897,"lat":-12.3817,"emissions":150640.0},{"id":25455344,"name":"Luanda Diesel","sector":"electricity-generation","type":"oil","lon":13.2344,"lat":-8.8383,"emissions":68292.0},{"id":25450692,"name":"Lobito","sector":"electricity-generation","type":"oil","lon":13.57,"lat":-12.37,"emissions":66954.0},{"id":25450691,"name":"Biopio","sector":"electricity-generation","type":"oil","lon":13.7319,"lat":-12.4706,"emissions":38165.0},{"id":25451175,"name":"Xitoto","sector":"electricity-generation","type":"oil","lon":15.0,"lat":-15.3333,"emissions":35821.0},{"id":25450949,"name":"Luanda Refinery","sector":"electricity-generation","type":"gas","lon":13.2976,"lat":-8.7812,"emissions":25761.0},{"id":53059318,"name":"Angola_Lower Congo_Conventional onshore","sector":"oil-and-gas-transport","type":"","lon":13.0,"lat":-6.1,"emissions":12337.7}]}