{"iso_code":"AND","generated_at":"2026-06-02T14:19:15-03:00","gas":"co2e_100yr","sectors":["power","fossil-fuel-operations","manufacturing","mineral-extraction","transportation"],"assets":[{"id":3597414,"name":"Sant Julià de Lòria Parish","sector":"road-transportation","type":"","lon":1.49997,"lat":42.46986,"emissions":10584.5},{"id":3597408,"name":"Andorra la Vella Parish","sector":"road-transportation","type":"","lon":1.51545,"lat":42.50571,"emissions":9831.6},{"id":3597409,"name":"Canillo Parish","sector":"road-transportation","type":"","lon":1.66938,"lat":42.5734,"emissions":9797.0},{"id":3597412,"name":"La Massana Parish","sector":"road-transportation","type":"","lon":1.47394,"lat":42.55297,"emissions":9159.7},{"id":3597411,"name":"Escaldes-Engordany Parish","sector":"road-transportation","type":"","lon":1.58782,"lat":42.48942,"emissions":4651.8},{"id":3597413,"name":"Ordino Parish","sector":"road-transportation","type":"","lon":1.53125,"lat":42.59953,"emissions":4604.4},{"id":3597410,"name":"Encamp Parish","sector":"road-transportation","type":"","lon":1.64597,"lat":42.51529,"emissions":3857.2}]}