{"iso_code":"ARE","generated_at":"2026-06-02T15:36:57-03:00","gas":"co2e_100yr","sectors":["power","fossil-fuel-operations","manufacturing","mineral-extraction"],"assets":[{"id":53059188,"name":"United Arab Emirates_Rub al Khali_Conventional onshore","sector":"oil-and-gas-production","type":"","lon":54.29736,"lat":23.46382,"emissions":44552956.4},{"id":53059189,"name":"United Arab Emirates_Rub al Khali_Conventional shelf","sector":"oil-and-gas-production","type":"","lon":53.50379,"lat":24.9868,"emissions":41031062.1},{"id":53059187,"name":"United Arab Emirates_Rub al Khali_Acid/sour gas","sector":"oil-and-gas-production","type":"","lon":53.6833,"lat":24.29603,"emissions":25532645.9},{"id":447784,"name":"Jebel Ali G Power and Desalination Station","sector":"electricity-generation","type":"gas, other_fossil, oil","lon":55.1116,"lat":25.0493,"emissions":11484100.0},{"id":450162,"name":"Taweelah A1 power plant","sector":"electricity-generation","type":"gas, other_fossil","lon":54.683,"lat":24.7624,"emissions":8110000.0},{"id":4406492,"name":"Hassyan Clean-Coal Power Project","sector":"electricity-generation","type":"coal, gas","lon":54.9155,"lat":24.9115,"emissions":7966100.0},{"id":3144154,"name":"Abu Dhabi Oil Refining Company Al-Ruwais Refinery","sector":"oil-and-gas-refining","type":"Medium Conversion","lon":52.71988,"lat":24.12462,"emissions":7843838.0},{"id":450026,"name":"Shuweihat S1 power plant","sector":"electricity-generation","type":"gas, other_fossil","lon":52.5683,"lat":24.1602,"emissions":6410300.0},{"id":53060031,"name":"United Arab Emirates_Rub al Khali_Conventional onshore","sector":"oil-and-gas-transport","type":"","lon":54.29736,"lat":23.46382,"emissions":6402007.8},{"id":25450582,"name":"Al Aweer H Power and Desalination Station","sector":"electricity-generation","type":"gas","lon":55.4261,"lat":25.1495,"emissions":5791300.0},{"id":53060032,"name":"United Arab Emirates_Rub al Khali_Conventional shelf","sector":"oil-and-gas-transport","type":"","lon":53.50379,"lat":24.9868,"emissions":5634625.4},{"id":449235,"name":"Layyah power station","sector":"electricity-generation","type":"gas, other_fossil, oil","lon":55.3684,"lat":25.3549,"emissions":5339400.0},{"id":451115,"name":"Emirates Aluminum Smelter Complex power station","sector":"electricity-generation","type":"gas, other_fossil","lon":54.7105,"lat":24.7989,"emissions":5314800.0},{"id":53060030,"name":"United Arab Emirates_Rub al Khali_Acid/sour gas","sector":"oil-and-gas-transport","type":"","lon":53.6833,"lat":24.29603,"emissions":5298417.8},{"id":43765087,"name":"Taweelah Shaheen Alumina Refinery","sector":"aluminum","type":"Refinery","lon":54.71425,"lat":24.7788,"emissions":4739433.1},{"id":25455783,"name":"Emirates Global Aluminum Smelter power station","sector":"electricity-generation","type":"gas, other_fossil","lon":55.0878,"lat":25.0251,"emissions":4590200.0},{"id":731938,"name":"Borouge Abu Dhabi Polymers Co. Ltd. , Ruwais,Abu Dhabi","sector":"petrochemical-steam-cracking","type":"Natural Gas Liquids","lon":52.75394,"lat":24.12651,"emissions":4562196.0},{"id":447364,"name":"Al Nakheel power station","sector":"electricity-generation","type":"gas, other_fossil, oil","lon":54.4876,"lat":24.4348,"emissions":3795900.0},{"id":3672937,"name":"Taweelah-Abu Dhabi aluminium plant","sector":"aluminum","type":"Smelting","lon":54.7212,"lat":24.79263,"emissions":3459724.8},{"id":1566423,"name":"Emsteel Abu Dhabi plant","sector":"iron-and-steel","type":"DRI-EAF","lon":54.46516,"lat":24.32207,"emissions":2617390.3},{"id":3672938,"name":"Jebel Ali aluminium plant","sector":"aluminum","type":"Smelting","lon":55.09426,"lat":25.03066,"emissions":2465160.2},{"id":449906,"name":"Wasit power station","sector":"electricity-generation","type":"gas, oil","lon":55.4611,"lat":25.3732,"emissions":2439600.0},{"id":451010,"name":"Fujairah F2 Integrated Water and power plant","sector":"electricity-generation","type":"gas, other_fossil","lon":56.3706,"lat":25.302,"emissions":2385500.0},{"id":32437202,"name":"EMSteel Industrial City Cement Plant","sector":"cement","type":"integrated dry","lon":55.43787,"lat":24.00208,"emissions":2288162.4},{"id":447359,"name":"Ruwais General Utilities Plant","sector":"electricity-generation","type":"gas, oil","lon":52.7318,"lat":24.136,"emissions":2200900.0},{"id":1895106,"name":"Union Cement Ras Al-Khaimah Plant","sector":"cement","type":"integrated dry","lon":56.06538,"lat":25.96746,"emissions":2096355.7},{"id":452506,"name":"Mirfa Independent Water and Power Project","sector":"electricity-generation","type":"gas, other_fossil","lon":53.447,"lat":24.121,"emissions":1966800.0},{"id":450895,"name":"Hamriyah power station","sector":"electricity-generation","type":"gas, other_fossil","lon":55.4785,"lat":25.4595,"emissions":1933400.0},{"id":42741840,"name":"Arabian Gulf Steel Industries Abu Dhabi plant","sector":"iron-and-steel","type":"BF/BOF","lon":54.46202,"lat":24.28168,"emissions":1827541.6},{"id":1895094,"name":"Gulf Cement Ras Al Khaimah Plant","sector":"cement","type":"integrated dry","lon":56.07082,"lat":25.97243,"emissions":1577005.9},{"id":25453876,"name":"HABSHAN-4","sector":"electricity-generation","type":"gas","lon":53.6989,"lat":23.9161,"emissions":1576600.0},{"id":450311,"name":"Fujairah F1 Integrated Water and power plant","sector":"electricity-generation","type":"gas, oil, other_fossil","lon":56.3728,"lat":25.3142,"emissions":1504260.0},{"id":1895105,"name":"Al Saajah Cement Plant","sector":"cement","type":"integrated dry","lon":55.61827,"lat":25.29706,"emissions":1360844.7},{"id":3144155,"name":"ENOC Jebel Ali Refinery","sector":"oil-and-gas-refining","type":"Hydroskimming","lon":55.0593,"lat":25.00761,"emissions":1233223.6},{"id":1895096,"name":"JK Cement Ras Al-Khaimah Plant","sector":"cement","type":"integrated dry","lon":55.98602,"lat":25.54816,"emissions":1218730.7},{"id":25455539,"name":"Zirku ADMA-OPCO power station","sector":"electricity-generation","type":"gas","lon":53.0648,"lat":24.8918,"emissions":958430.0},{"id":447360,"name":"Al-Zawra power plant","sector":"electricity-generation","type":"gas, oil","lon":55.4747,"lat":25.4478,"emissions":917760.0},{"id":1895098,"name":"Al Banah Cement Plant","sector":"cement","type":"integrated dry","lon":55.98554,"lat":25.55866,"emissions":864406.3},{"id":1895108,"name":"Star Cement Ras Al-Khaimah Plant","sector":"cement","type":"integrated dry","lon":55.97797,"lat":25.55616,"emissions":781108.3},{"id":53059186,"name":"United Arab Emirates_Oman Mountains Foldbelt_Conventional onshore","sector":"oil-and-gas-production","type":"","lon":55.68407,"lat":25.20593,"emissions":746721.2},{"id":3672939,"name":"Abu Dhabi Municipal Region","sector":"aluminum","type":"Refinery","lon":54.49987,"lat":24.34231,"emissions":663169.3},{"id":32437209,"name":"Al Ghayl Cement Plant","sector":"cement","type":"integrated dry","lon":55.96714,"lat":25.38703,"emissions":610523.1},{"id":1895101,"name":"National Cement Dubai Plant","sector":"cement","type":"integrated dry","lon":55.24294,"lat":25.15837,"emissions":606821.5},{"id":32437206,"name":"Fujairah Cement Plant","sector":"cement","type":"integrated dry","lon":56.22679,"lat":25.55286,"emissions":561921.3},{"id":25450149,"name":"ASAB ADNOC","sector":"electricity-generation","type":"gas","lon":54.1742,"lat":23.3139,"emissions":556620.0},{"id":25454467,"name":"HABSHAN-5 IGD","sector":"electricity-generation","type":"gas","lon":53.7058,"lat":23.9094,"emissions":531060.0},{"id":25454466,"name":"DAS ISLAND LNG PLANT","sector":"electricity-generation","type":"gas, oil","lon":52.8766,"lat":25.1609,"emissions":528570.0},{"id":40040652,"name":"VTTI Fujairah Refinery","sector":"oil-and-gas-refining","type":"Hydroskimming","lon":56.35366,"lat":25.19195,"emissions":469799.5},{"id":25452039,"name":"Khorfakkan Station (KHPS)","sector":"electricity-generation","type":"gas, oil","lon":56.3401,"lat":25.3671,"emissions":429830.0},{"id":25450148,"name":"BU HASA GASCO","sector":"electricity-generation","type":"gas","lon":53.3113,"lat":23.5464,"emissions":401090.0},{"id":3144158,"name":"Uniper Fujairah Refinery","sector":"oil-and-gas-refining","type":"Hydroskimming","lon":56.35578,"lat":25.19408,"emissions":381712.1},{"id":40040651,"name":"Ecomar Fujairah Refinery","sector":"oil-and-gas-refining","type":"Hydroskimming","lon":56.34433,"lat":25.18012,"emissions":364094.6},{"id":25450152,"name":"Al Ain power station","sector":"electricity-generation","type":"gas, oil","lon":55.7482,"lat":24.2347,"emissions":336900.0},{"id":53060029,"name":"United Arab Emirates_Oman Mountains Foldbelt_Conventional onshore","sector":"oil-and-gas-transport","type":"","lon":55.68407,"lat":25.20593,"emissions":323669.5},{"id":25450153,"name":"MADINET ZAYED","sector":"electricity-generation","type":"gas, oil","lon":53.7296,"lat":23.5795,"emissions":315410.0},{"id":25452038,"name":"KALBA","sector":"electricity-generation","type":"gas, oil","lon":56.3499,"lat":25.0557,"emissions":304950.0},{"id":1895104,"name":"Ghalilah Cement Plant","sector":"cement","type":"integrated dry","lon":56.07051,"lat":25.96553,"emissions":222177.3},{"id":1895103,"name":"RAKCC Ras Al-Khaimah Cement Plant","sector":"cement","type":"integrated dry","lon":56.06986,"lat":25.97574,"emissions":198521.0},{"id":49530229,"name":"Al Hamra Independent Power Plant","sector":"electricity-generation","type":"gas","lon":55.7984,"lat":25.6863,"emissions":130695.0},{"id":38477785,"name":"Mascot Ltd.Dmcc","sector":"textiles-leather-apparel","type":"Final Product Assembly","lon":55.13579,"lat":25.05843,"emissions":35.0}]}