{"iso_code":"ARG","generated_at":"2026-06-02T15:36:57-03:00","gas":"co2e_100yr","sectors":["power","fossil-fuel-operations","manufacturing","mineral-extraction"],"assets":[{"id":53058507,"name":"Argentina_Neuquen_Shale oil","sector":"oil-and-gas-production","type":"","lon":-68.77875,"lat":-38.02346,"emissions":14649754.7},{"id":53058506,"name":"Argentina_Neuquen_Shale gas","sector":"oil-and-gas-production","type":"","lon":-69.22846,"lat":-38.15089,"emissions":8925440.0},{"id":53058509,"name":"Argentina_San Jorge_Conventional onshore","sector":"oil-and-gas-production","type":"","lon":-68.27475,"lat":-46.22325,"emissions":7953575.0},{"id":53058508,"name":"Argentina_Neuquen_Tight gas","sector":"oil-and-gas-production","type":"","lon":-68.8055,"lat":-38.61838,"emissions":5476072.6},{"id":53058504,"name":"Argentina_Neuquen_Conventional onshore","sector":"oil-and-gas-production","type":"","lon":-68.62276,"lat":-38.41722,"emissions":5128337.4},{"id":447580,"name":"Costanera power station","sector":"electricity-generation","type":"gas, other_fossil, oil","lon":-58.3392,"lat":-34.6254,"emissions":4601900.0},{"id":1566427,"name":"Ternium Siderar San Nicolás steel plant","sector":"iron-and-steel","type":"BF/BOF","lon":-60.15156,"lat":-33.36629,"emissions":3990010.9},{"id":447589,"name":"Puerto power station","sector":"electricity-generation","type":"gas, other_fossil, oil","lon":-58.3845,"lat":-34.5718,"emissions":3503100.0},{"id":53059349,"name":"Argentina_Neuquen_Shale gas","sector":"oil-and-gas-transport","type":"","lon":-69.22846,"lat":-38.15089,"emissions":3425144.4},{"id":447592,"name":"San Nicolás power station","sector":"electricity-generation","type":"gas, coal, other_fossil, oil","lon":-60.1725,"lat":-33.3549,"emissions":3102300.0},{"id":3143723,"name":"YPF la Plata Refinery","sector":"oil-and-gas-refining","type":"Deep Conversion","lon":-57.91272,"lat":-34.88315,"emissions":2486568.7},{"id":447665,"name":"Genelba power station","sector":"electricity-generation","type":"gas, other_fossil, oil","lon":-58.7333,"lat":-34.9022,"emissions":2270600.0},{"id":447550,"name":"Agua Del Cajón power station","sector":"electricity-generation","type":"gas, other_fossil","lon":-68.357,"lat":-38.9362,"emissions":1877400.0},{"id":53058500,"name":"Argentina_Macachin_Conventional onshore","sector":"oil-and-gas-production","type":"","lon":-63.40404,"lat":-38.25979,"emissions":1835532.9},{"id":1895123,"name":"Santa María Cement Plant","sector":"cement","type":"integrated dry","lon":-64.35271,"lat":-31.48184,"emissions":1739723.0},{"id":33998975,"name":"ARG-Metán_ammonia","sector":"chemicals","type":"ammonia","lon":-64.57527,"lat":-25.41942,"emissions":1705826.2},{"id":25450805,"name":"Piedra Buena power station","sector":"electricity-generation","type":"gas","lon":-62.2537,"lat":-38.7875,"emissions":1576100.0},{"id":450799,"name":"Manuel Belgrano I power station","sector":"electricity-generation","type":"gas, other_fossil","lon":-59.006,"lat":-34.1845,"emissions":1490000.0},{"id":53059351,"name":"Argentina_Neuquen_Tight gas","sector":"oil-and-gas-transport","type":"","lon":-68.8055,"lat":-38.61838,"emissions":1408170.6},{"id":1895116,"name":"Loma Negra Compania Industrial Argentina Olavarría Plant","sector":"cement","type":"integrated dry","lon":-60.29564,"lat":-37.03862,"emissions":1390722.5},{"id":3143726,"name":"Pan American Energy Campana Refinery","sector":"oil-and-gas-refining","type":"Deep Conversion","lon":-58.94717,"lat":-34.16196,"emissions":1302289.8},{"id":25455075,"name":"Guillermo Brown power station","sector":"electricity-generation","type":"gas","lon":-62.4185,"lat":-38.6865,"emissions":1281320.0},{"id":447581,"name":"Dock Sud power station","sector":"electricity-generation","type":"gas, other_fossil","lon":-58.3419,"lat":-34.6529,"emissions":1272130.0},{"id":447590,"name":"Loma de la Lata power station","sector":"electricity-generation","type":"gas, other_fossil","lon":-68.6061,"lat":-38.5127,"emissions":1265950.0},{"id":53059350,"name":"Argentina_Neuquen_Shale oil","sector":"oil-and-gas-transport","type":"","lon":-68.77875,"lat":-38.02346,"emissions":1247003.6},{"id":53058505,"name":"Argentina_Neuquen_Heavy oil","sector":"oil-and-gas-production","type":"","lon":-68.76641,"lat":-36.54536,"emissions":1245665.5},{"id":450729,"name":"Timbúes power station","sector":"electricity-generation","type":"gas, other_fossil","lon":-60.7905,"lat":-32.5779,"emissions":1225700.0},{"id":447413,"name":"Aluar Puerto Madryn power station","sector":"electricity-generation","type":"gas, other_fossil","lon":-65.055,"lat":-42.7368,"emissions":1217250.0},{"id":447591,"name":"Tucumán power station","sector":"electricity-generation","type":"gas, other_fossil","lon":-65.1684,"lat":-26.9935,"emissions":1159950.0},{"id":447635,"name":"TermoAndes power station","sector":"electricity-generation","type":"gas, other_fossil","lon":-65.0519,"lat":-24.744,"emissions":1157470.0},{"id":452267,"name":"Vuelta De Obligado power station","sector":"electricity-generation","type":"gas, other_fossil","lon":-60.7884,"lat":-32.5794,"emissions":1146700.0},{"id":3143724,"name":"YPF Lujan de Cuyo Refinery","sector":"oil-and-gas-refining","type":"Medium Conversion","lon":-68.97526,"lat":-33.06363,"emissions":1132406.8},{"id":450220,"name":"Modesto Maranzana power station","sector":"electricity-generation","type":"gas","lon":-64.3649,"lat":-33.1607,"emissions":1091480.0},{"id":447598,"name":"Luján De Cuyo power station","sector":"electricity-generation","type":"gas, other_fossil","lon":-68.9826,"lat":-33.0556,"emissions":954640.0},{"id":25454013,"name":"Ensenada Barragán power station","sector":"electricity-generation","type":"gas, other_fossil","lon":-57.9524,"lat":-34.8586,"emissions":889740.0},{"id":25451672,"name":"Güemes power station","sector":"electricity-generation","type":"gas","lon":-65.042,"lat":-24.6893,"emissions":885900.0},{"id":1895115,"name":"El Alto Department Cement Plant","sector":"cement","type":"integrated dry","lon":-65.22812,"lat":-28.46772,"emissions":789819.8},{"id":1753407,"name":"Raizen Buenos Aires Refinery","sector":"oil-and-gas-refining","type":"Hydroskimming","lon":-58.32709,"lat":-34.65606,"emissions":703192.9},{"id":451797,"name":"Bicentenario power station","sector":"electricity-generation","type":"gas, other_fossil","lon":-63.8316,"lat":-31.6648,"emissions":698270.0},{"id":25454014,"name":"Brigadier López power station","sector":"electricity-generation","type":"gas","lon":-60.7806,"lat":-31.7109,"emissions":649500.0},{"id":3672940,"name":"Puerto Madryn aluminium plant","sector":"aluminum","type":"Smelting","lon":-65.05338,"lat":-42.73902,"emissions":644986.7},{"id":25455680,"name":"Tucumán El Bracho power station","sector":"electricity-generation","type":"other_fossil, gas","lon":-65.1707,"lat":-26.9972,"emissions":640870.0},{"id":32437215,"name":"Cementos Avellaneda Olavarría Plant","sector":"cement","type":"integrated dry","lon":-60.24487,"lat":-36.98245,"emissions":628957.5},{"id":53059347,"name":"Argentina_Neuquen_Conventional onshore","sector":"oil-and-gas-transport","type":"","lon":-68.62276,"lat":-38.41722,"emissions":619002.1},{"id":53059352,"name":"Argentina_San Jorge_Conventional onshore","sector":"oil-and-gas-transport","type":"","lon":-68.27475,"lat":-46.22325,"emissions":605491.0},{"id":53058499,"name":"Argentina_Cuyo_Conventional onshore","sector":"oil-and-gas-production","type":"","lon":-68.7109,"lat":-33.41384,"emissions":557011.7},{"id":1895117,"name":"Villa Fortabat Cement Plant","sector":"cement","type":"integrated dry","lon":-60.27575,"lat":-36.99377,"emissions":551151.0},{"id":450451,"name":"Cruz Alta power station","sector":"electricity-generation","type":"gas, oil","lon":-65.1616,"lat":-26.9945,"emissions":548010.0},{"id":53058503,"name":"Argentina_Magallanes_Tight gas","sector":"oil-and-gas-production","type":"","lon":-70.67212,"lat":-50.756,"emissions":541982.7},{"id":447596,"name":"Necochea power station","sector":"electricity-generation","type":"gas, oil","lon":-58.7109,"lat":-38.5785,"emissions":523680.0},{"id":1566425,"name":"ArcelorMittal Acindar Villa Constitución steel plant","sector":"iron-and-steel","type":"DRI-EAF","lon":-60.2925,"lat":-33.25241,"emissions":522017.9},{"id":732004,"name":"Dow Argentina Bahia Blanca Chemical Complex, Bahia Blanca,Buenos Aires","sector":"petrochemical-steam-cracking","type":"Natural Gas Liquids","lon":-62.29041,"lat":-38.76584,"emissions":514922.3},{"id":3143727,"name":"Refisan S.A. San Lorenzo Refinery","sector":"oil-and-gas-refining","type":"Medium Conversion","lon":-60.74293,"lat":-32.72745,"emissions":510747.7},{"id":452933,"name":"Villa María power station","sector":"electricity-generation","type":"other_fossil, gas","lon":-63.174,"lat":-32.4268,"emissions":506530.0},{"id":452929,"name":"General Rojo power station","sector":"electricity-generation","type":"other_fossil, gas","lon":-60.2836,"lat":-33.4553,"emissions":506530.0},{"id":452931,"name":"Barker power station","sector":"electricity-generation","type":"other_fossil, gas","lon":-59.4528,"lat":-37.5473,"emissions":506530.0},{"id":447391,"name":"Independencia power station","sector":"electricity-generation","type":"gas","lon":-65.2241,"lat":-26.8665,"emissions":489340.0},{"id":25450476,"name":"La Plata Cogeneración power station","sector":"electricity-generation","type":"gas","lon":-57.9228,"lat":-34.8904,"emissions":484910.0},{"id":25455681,"name":"Loma Campana power station","sector":"electricity-generation","type":"gas","lon":-68.7147,"lat":-38.36,"emissions":471560.0},{"id":1895124,"name":"El Carmen Cement Plant","sector":"cement","type":"integrated dry","lon":-64.95717,"lat":-24.49084,"emissions":459501.6},{"id":25455658,"name":"Las Palmas power station (Argentina)","sector":"electricity-generation","type":"gas","lon":-59.1254,"lat":-34.0809,"emissions":449310.0},{"id":25455909,"name":"Terminal 6 San Lorenzo cogeneration plant","sector":"electricity-generation","type":"other_fossil, gas","lon":-60.7492,"lat":-32.663,"emissions":445650.0},{"id":447594,"name":"9 de Julio power station","sector":"electricity-generation","type":"gas, oil","lon":-57.5455,"lat":-38.0496,"emissions":423880.0},{"id":53058511,"name":"Argentina_Santa Cruz_Conventional onshore","sector":"oil-and-gas-production","type":"","lon":-63.99579,"lat":-22.54258,"emissions":398177.3},{"id":450747,"name":"Cerro Dragón power station","sector":"electricity-generation","type":"gas, other_fossil","lon":-68.2973,"lat":-45.7635,"emissions":391080.0},{"id":32437216,"name":"Belgrano Cement Plant","sector":"cement","type":"integrated dry","lon":-66.8527,"lat":-32.8616,"emissions":382962.9},{"id":25454749,"name":"CT BRAGADO","sector":"electricity-generation","type":"gas","lon":-60.4308,"lat":-35.1351,"emissions":378140.0},{"id":25455745,"name":"Timbúes cogeneration power station","sector":"electricity-generation","type":"gas","lon":-60.7928,"lat":-32.5873,"emissions":378140.0},{"id":449562,"name":"Roca power station","sector":"electricity-generation","type":"gas, other_fossil","lon":-67.6006,"lat":-38.946,"emissions":363530.0},{"id":25451020,"name":"Argener power station","sector":"electricity-generation","type":"gas","lon":-60.1438,"lat":-33.3652,"emissions":362590.0},{"id":447394,"name":"Sorrento power station","sector":"electricity-generation","type":"gas, oil","lon":-60.6803,"lat":-32.9052,"emissions":355880.0},{"id":4407425,"name":"Ezeiza power station","sector":"electricity-generation","type":"other_fossil, gas","lon":-58.6162,"lat":-34.9033,"emissions":333650.0},{"id":25455913,"name":"EL ZORRO GAS PLANT","sector":"electricity-generation","type":"gas","lon":-68.5488,"lat":-45.8649,"emissions":329200.0},{"id":53058510,"name":"Argentina_San Jorge_Shale oil","sector":"oil-and-gas-production","type":"","lon":-67.86103,"lat":-45.78023,"emissions":314978.0},{"id":25452348,"name":"TOTAL RIO CULLEN","sector":"electricity-generation","type":"gas","lon":-68.3535,"lat":-52.8966,"emissions":302270.0},{"id":1566426,"name":"TenarisSiderca Campana steel plant","sector":"iron-and-steel","type":"DRI-EAF","lon":-58.97685,"lat":-34.15459,"emissions":299345.5},{"id":25452921,"name":"COMODORO RIVADAVIA","sector":"electricity-generation","type":"gas","lon":-67.4436,"lat":-45.815,"emissions":289060.0},{"id":44373191,"name":"Luján power station","sector":"electricity-generation","type":"gas","lon":-59.0336,"lat":-34.5578,"emissions":282470.0},{"id":25454042,"name":"Solalban Energía power station","sector":"electricity-generation","type":"gas","lon":-62.2908,"lat":-38.778,"emissions":266920.0},{"id":53059346,"name":"Argentina_Magallanes_Tight gas","sector":"oil-and-gas-transport","type":"","lon":-70.67212,"lat":-50.756,"emissions":260999.8}]}