{"iso_code":"BEL","generated_at":"2026-06-02T15:37:01-03:00","gas":"co2e_100yr","sectors":["power","fossil-fuel-operations","manufacturing","mineral-extraction"],"assets":[{"id":1566440,"name":"ArcelorMittal Gent steel plant","sector":"iron-and-steel","type":"BF/BOF","lon":3.80756,"lat":51.1711,"emissions":7190058.6},{"id":3143742,"name":"Total Antwerp Refinery","sector":"oil-and-gas-refining","type":"Medium Conversion","lon":4.32158,"lat":51.26557,"emissions":3690004.0},{"id":3143743,"name":"ExxonMobil Antwerp Refinery","sector":"oil-and-gas-refining","type":"Medium Conversion","lon":4.34045,"lat":51.25477,"emissions":3351571.7},{"id":18648343,"name":"TotalEnergies Fina Antwerp Olefin, Antwerp","sector":"petrochemical-steam-cracking","type":"Flex Integrated","lon":4.33205,"lat":51.2548,"emissions":1454498.9},{"id":18648342,"name":"BASF Antwerpen, NV Antwerp ","sector":"petrochemical-steam-cracking","type":"Flex Standalone","lon":4.26221,"lat":51.35883,"emissions":1409391.8},{"id":25453511,"name":"Zelzate 2 Knippegroen power station","sector":"electricity-generation","type":"gas","lon":3.8068,"lat":51.1587,"emissions":1198690.0},{"id":33999004,"name":"BEL-Antwerpen_ammonia","sector":"chemicals","type":"ammonia","lon":4.7207,"lat":51.23194,"emissions":923855.6},{"id":1895170,"name":"Gaurain Cement Plant","sector":"cement","type":"integrated dry","lon":3.49007,"lat":50.60335,"emissions":823157.0},{"id":447868,"name":"Amercoeur power station","sector":"electricity-generation","type":"gas, other_fossil, coal","lon":4.3955,"lat":50.4304,"emissions":677860.0},{"id":32437253,"name":"Obourg Cement Plant","sector":"cement","type":"integrated wet","lon":3.99263,"lat":50.47267,"emissions":591351.4},{"id":447874,"name":"Drogenbos power station","sector":"electricity-generation","type":"gas, other_fossil, oil","lon":4.299,"lat":50.8023,"emissions":543360.0},{"id":38467373,"name":"Lhoist Industrie Sa - Site De On","sector":"lime","type":"Lime Production In Rotary Kilns","lon":5.268,"lat":50.1649,"emissions":419399.9},{"id":25454053,"name":"Scheldelaan Exxonmobil power station","sector":"electricity-generation","type":"gas","lon":4.334,"lat":51.254,"emissions":350690.0},{"id":32437252,"name":"Lixhe Cement Plant","sector":"cement","type":"integrated dry","lon":5.67384,"lat":50.76553,"emissions":288016.3},{"id":25452141,"name":"Ringvaart power station","sector":"electricity-generation","type":"gas","lon":3.7257,"lat":51.1049,"emissions":284027.0},{"id":38469213,"name":"Agc Glass Europe - Site De Moustier (Ex-Glaverbel Sa)","sector":"glass","type":"Glass Manufacturing","lon":4.6926,"lat":50.4475,"emissions":274279.0},{"id":33998943,"name":"BEL-Hainaut_ammonia","sector":"chemicals","type":"ammonia","lon":3.97003,"lat":50.4637,"emissions":264144.4},{"id":449302,"name":"Angleur power station","sector":"electricity-generation","type":"gas, other_fossil","lon":5.5837,"lat":50.6177,"emissions":246770.0},{"id":449828,"name":"Wilmarsdonk Total power station","sector":"electricity-generation","type":"gas, other_fossil","lon":4.3262,"lat":51.2717,"emissions":243200.0},{"id":449339,"name":"Ham (Gent) power station","sector":"electricity-generation","type":"gas, other_fossil, oil, coal","lon":3.7364,"lat":51.0596,"emissions":240570.0},{"id":25452806,"name":"Zandvliet power station","sector":"electricity-generation","type":"gas","lon":4.2665,"lat":51.3696,"emissions":240186.0},{"id":25453884,"name":"Marcinelle Energie (Carsid) power station","sector":"electricity-generation","type":"gas","lon":4.4067,"lat":50.4138,"emissions":240168.0},{"id":450216,"name":"Saint-Ghislain power station","sector":"electricity-generation","type":"gas, other_fossil","lon":3.8248,"lat":50.4719,"emissions":234698.0},{"id":38480863,"name":"Tereos Starch & Sweeteners Belgium","sector":"food-beverage-tobacco","type":"Animal And Vegetable Products From The Food And Beverage Sector","lon":4.04524,"lat":50.93721,"emissions":214498.6},{"id":3673515,"name":"UMICORE - HOBOKEN","sector":"other-metals","type":"Non-ferrous crude metal production","lon":4.3348,"lat":51.1677,"emissions":213000.0},{"id":1566441,"name":"Aperam Stainless Belgium Genk steel plant","sector":"iron-and-steel","type":"EAF","lon":5.51202,"lat":50.93309,"emissions":202402.8},{"id":450452,"name":"Inesco power station","sector":"electricity-generation","type":"gas, other_fossil","lon":4.3212,"lat":51.2413,"emissions":192110.0},{"id":44375332,"name":"Burgo Ardennes Pulp Mill","sector":"pulp-and-paper","type":"Chemical wood pulp; Mechanical and semi-chemical wood pulp","lon":5.5054,"lat":49.55183,"emissions":188703.0},{"id":1566442,"name":"Aperam Stainless Belgium Châtelet steel plant","sector":"iron-and-steel","type":"EAF","lon":4.53187,"lat":50.41496,"emissions":168669.0},{"id":25450482,"name":"LIBERTY SERAING","sector":"electricity-generation","type":"gas, oil","lon":5.533,"lat":50.6115,"emissions":163610.0},{"id":447871,"name":"Herdersbrug power station","sector":"electricity-generation","type":"gas, other_fossil","lon":3.2112,"lat":51.2629,"emissions":161234.0},{"id":32437251,"name":"Antoing Cement Plant","sector":"cement","type":"integrated dry","lon":3.44408,"lat":50.57656,"emissions":136233.0},{"id":38469190,"name":"Saint-Gobain Glass Sa","sector":"glass","type":"Glass Manufacturing","lon":4.6163,"lat":50.4499,"emissions":134069.2},{"id":45257032,"name":"Antwerp Chemical Complex","sector":"chemicals","type":"methanol","lon":4.2695,"lat":51.35913,"emissions":133500.0},{"id":4402521,"name":"SLECO Waste-to-Energy power station","sector":"electricity-generation","type":"biomass, waste","lon":4.274,"lat":51.2857,"emissions":131100.0},{"id":25453631,"name":"T-power Beringen power station","sector":"electricity-generation","type":"gas","lon":5.1056,"lat":51.0586,"emissions":121124.7},{"id":38480880,"name":"Tiense Suikerraffinaderij","sector":"food-beverage-tobacco","type":"Animal And Vegetable Products From The Food And Beverage Sector","lon":4.93609,"lat":50.79409,"emissions":118904.3},{"id":716695,"name":"Lillo Degussa power station","sector":"electricity-generation","type":"gas, other_fossil","lon":4.304,"lat":51.3095,"emissions":111891.0},{"id":38480772,"name":"Beneo - Orafti","sector":"food-beverage-tobacco","type":"Animal And Vegetable Products From The Food And Beverage Sector","lon":5.3524,"lat":50.7245,"emissions":103904.3},{"id":38469239,"name":"Agc Glass Europe Vestiging Mol","sector":"glass","type":"Glass Manufacturing","lon":5.15545,"lat":51.18836,"emissions":103366.3},{"id":716738,"name":"Jemeppe-sur-Sambre power station","sector":"electricity-generation","type":"gas, other_fossil","lon":4.6612,"lat":50.4477,"emissions":98627.0},{"id":450965,"name":"Zwijndrecht Lanxess power station","sector":"electricity-generation","type":"gas, other_fossil","lon":4.3408,"lat":51.2382,"emissions":81316.0},{"id":38480242,"name":"Tecoma","sector":"food-beverage-tobacco","type":"Animal And Vegetable Products From The Food And Beverage Sector","lon":4.35808,"lat":51.27369,"emissions":63281.9},{"id":715188,"name":"Sappi Lanaken power station","sector":"electricity-generation","type":"gas","lon":5.6419,"lat":50.8827,"emissions":59613.0},{"id":719143,"name":"Covestro Oorderen power station","sector":"electricity-generation","type":"gas","lon":4.3191,"lat":51.297,"emissions":59613.0},{"id":716737,"name":"Monsanto Oud-Lillo power station","sector":"electricity-generation","type":"gas","lon":4.2896,"lat":51.3155,"emissions":59613.0},{"id":38480213,"name":"Boortmalt","sector":"food-beverage-tobacco","type":"Animal And Vegetable Products From The Food And Beverage Sector","lon":4.35568,"lat":51.27512,"emissions":57693.6},{"id":38480211,"name":"Exportslachthuis Tielt","sector":"food-beverage-tobacco","type":"Animal And Vegetable Products From The Food And Beverage Sector","lon":3.31441,"lat":51.00576,"emissions":57693.6},{"id":38480245,"name":"Deliva","sector":"food-beverage-tobacco","type":"Animal And Vegetable Products From The Food And Beverage Sector","lon":5.49146,"lat":50.91673,"emissions":57693.6},{"id":38480209,"name":"Slachthuis Sint Truiden","sector":"food-beverage-tobacco","type":"Animal And Vegetable Products From The Food And Beverage Sector","lon":5.19318,"lat":50.82002,"emissions":57693.6},{"id":38480647,"name":"Raffinerie Tirlemontoise Sa - Site De Hollogne","sector":"food-beverage-tobacco","type":"Animal And Vegetable Products From The Food And Beverage Sector","lon":5.2136,"lat":50.6744,"emissions":57693.6},{"id":38480208,"name":"Vaco Olen","sector":"food-beverage-tobacco","type":"Animal And Vegetable Products From The Food And Beverage Sector","lon":4.89978,"lat":51.14898,"emissions":57693.6},{"id":38480650,"name":"Slachthuis Genk","sector":"food-beverage-tobacco","type":"Animal And Vegetable Products From The Food And Beverage Sector","lon":5.48441,"lat":50.96632,"emissions":57693.6},{"id":38480835,"name":"Cargill","sector":"food-beverage-tobacco","type":"Animal And Vegetable Products From The Food And Beverage Sector","lon":4.34137,"lat":51.28055,"emissions":57693.6},{"id":38480849,"name":"Cargill","sector":"food-beverage-tobacco","type":"Animal And Vegetable Products From The Food And Beverage Sector","lon":3.78426,"lat":51.13567,"emissions":57693.6},{"id":38480844,"name":"Konings Juices And Drinks","sector":"food-beverage-tobacco","type":"Animal And Vegetable Products From The Food And Beverage Sector","lon":5.29208,"lat":50.80177,"emissions":57693.6},{"id":38480241,"name":"Manshoven Vers","sector":"food-beverage-tobacco","type":"Animal And Vegetable Products From The Food And Beverage Sector","lon":5.29655,"lat":50.88159,"emissions":57693.6},{"id":38480216,"name":"Vleeswarenbedrijf Bruynkens","sector":"food-beverage-tobacco","type":"Animal And Vegetable Products From The Food And Beverage Sector","lon":4.90122,"lat":51.1495,"emissions":57693.6},{"id":38480638,"name":"Mars Belgium","sector":"food-beverage-tobacco","type":"Animal And Vegetable Products From The Food And Beverage Sector","lon":4.87017,"lat":51.14502,"emissions":57693.6},{"id":38480210,"name":"Kraft Foods Belgium Production","sector":"food-beverage-tobacco","type":"Animal And Vegetable Products From The Food And Beverage Sector","lon":4.82904,"lat":51.17418,"emissions":57693.6},{"id":38480212,"name":"Leaf België Production Nv","sector":"food-beverage-tobacco","type":"Animal And Vegetable Products From The Food And Beverage Sector","lon":4.93943,"lat":51.299,"emissions":57693.6},{"id":38480215,"name":"Friesland Foods Belgie/Belgique","sector":"food-beverage-tobacco","type":"Animal And Vegetable Products From The Food And Beverage Sector","lon":4.24485,"lat":51.10239,"emissions":57693.6},{"id":38480217,"name":"Schildermans Pluimveeslachterij","sector":"food-beverage-tobacco","type":"Animal And Vegetable Products From The Food And Beverage Sector","lon":5.56203,"lat":51.14173,"emissions":57693.6},{"id":38480218,"name":"Slachthuis Heist Op Den Berg","sector":"food-beverage-tobacco","type":"Animal And Vegetable Products From The Food And Beverage Sector","lon":4.6992,"lat":51.07016,"emissions":57693.6},{"id":38480243,"name":"Cl Warneton Sa","sector":"food-beverage-tobacco","type":"Animal And Vegetable Products From The Food And Beverage Sector","lon":2.9349,"lat":50.7424,"emissions":57693.6},{"id":38480244,"name":"Vacos Kitchen Herselt","sector":"food-beverage-tobacco","type":"Animal And Vegetable Products From The Food And Beverage Sector","lon":4.89117,"lat":51.06432,"emissions":57693.6},{"id":38480246,"name":"Westvlees","sector":"food-beverage-tobacco","type":"Animal And Vegetable Products From The Food And Beverage Sector","lon":3.00609,"lat":50.9305,"emissions":57693.6},{"id":38480247,"name":"Coca-Cola European Partners Belgium","sector":"food-beverage-tobacco","type":"Animal And Vegetable Products From The Food And Beverage Sector","lon":4.3745,"lat":51.157,"emissions":57693.6},{"id":38480248,"name":"Citrique Belge","sector":"food-beverage-tobacco","type":"Animal And Vegetable Products From The Food And Beverage Sector","lon":4.96195,"lat":50.80137,"emissions":57693.6},{"id":38480249,"name":"Alpro","sector":"food-beverage-tobacco","type":"Animal And Vegetable Products From The Food And Beverage Sector","lon":3.21129,"lat":50.80996,"emissions":57693.6},{"id":38480251,"name":"Slachthuis Heyst","sector":"food-beverage-tobacco","type":"Animal And Vegetable Products From The Food And Beverage Sector","lon":4.70094,"lat":51.06956,"emissions":57693.6},{"id":38480628,"name":"Isera And Scaldis Sugar","sector":"food-beverage-tobacco","type":"Animal And Vegetable Products From The Food And Beverage Sector","lon":3.9255,"lat":51.17218,"emissions":57693.6},{"id":38480637,"name":"Raffinerie Tirlemontoise Sa - Site De Brugelette","sector":"food-beverage-tobacco","type":"Animal And Vegetable Products From The Food And Beverage Sector","lon":3.8574,"lat":50.5938,"emissions":57693.6},{"id":38480784,"name":"Raffinerie Tirlemontoise Sa - Site De Wanze","sector":"food-beverage-tobacco","type":"Animal And Vegetable Products From The Food And Beverage Sector","lon":5.2072,"lat":50.5286,"emissions":57693.6},{"id":38480867,"name":"Olympia","sector":"food-beverage-tobacco","type":"Animal And Vegetable Products From The Food And Beverage Sector","lon":4.08667,"lat":50.74231,"emissions":57693.6},{"id":38480873,"name":"Pb Leiner Vilvoorde","sector":"food-beverage-tobacco","type":"Animal And Vegetable Products From The Food And Beverage Sector","lon":4.41827,"lat":50.93843,"emissions":57693.6},{"id":38480898,"name":"Vandamme Oliefabriek","sector":"food-beverage-tobacco","type":"Animal And Vegetable Products From The Food And Beverage Sector","lon":3.50408,"lat":50.97538,"emissions":57693.6},{"id":38480938,"name":"Trotec","sector":"food-beverage-tobacco","type":"Animal And Vegetable Products From The Food And Beverage Sector","lon":2.67242,"lat":51.06218,"emissions":57693.6},{"id":38480250,"name":"Vandamme Oliefabriek","sector":"food-beverage-tobacco","type":"Animal And Vegetable Products From The Food And Beverage Sector","lon":3.50553,"lat":50.97469,"emissions":57693.6},{"id":38480214,"name":"Inex","sector":"food-beverage-tobacco","type":"Animal And Vegetable Products From The Food And Beverage Sector","lon":3.86616,"lat":50.94204,"emissions":57693.6}]}