{"iso_code":"BLR","generated_at":"2026-06-02T15:37:05-03:00","gas":"co2e_100yr","sectors":["power","fossil-fuel-operations","manufacturing","mineral-extraction"],"assets":[{"id":447497,"name":"Lukoml GRES power station","sector":"electricity-generation","type":"gas, other_fossil","lon":29.1333,"lat":54.68,"emissions":4074100.0},{"id":45257097,"name":"Grodna Azot","sector":"chemicals","type":"ammonia","lon":23.91635,"lat":53.67539,"emissions":1800000.0},{"id":712773,"name":"Naftan Oil Refinery","sector":"oil-and-gas-refining","type":"Medium Conversion","lon":28.55569,"lat":55.52336,"emissions":1656898.7},{"id":3143741,"name":"Slavneft Mozyr Refinery","sector":"oil-and-gas-refining","type":"Medium Conversion","lon":29.32195,"lat":51.89131,"emissions":1643317.6},{"id":447493,"name":"Berezovskaya (Belarus) power station","sector":"electricity-generation","type":"gas, other_fossil","lon":25.1934,"lat":52.4534,"emissions":1480000.0},{"id":448584,"name":"Minsk CHP-4 power station","sector":"electricity-generation","type":"gas","lon":27.4023,"lat":53.8719,"emissions":1468600.0},{"id":450065,"name":"Minsk CHP-5 power station","sector":"electricity-generation","type":"gas, other_fossil","lon":27.9528,"lat":53.6108,"emissions":1228830.0},{"id":1895230,"name":"Belarusian Cement Plant","sector":"cement","type":"integrated dry","lon":32.01372,"lat":53.39159,"emissions":1102846.3},{"id":448583,"name":"Minsk CHP-3 power station","sector":"electricity-generation","type":"gas, other_fossil","lon":27.649,"lat":53.8801,"emissions":594680.0},{"id":32437264,"name":"Krasnoselskstroymaterialy Cement Plant","sector":"cement","type":"integrated mixed","lon":24.4441,"lat":53.26438,"emissions":547459.7},{"id":4401700,"name":"Novopolotsk CHP power station","sector":"electricity-generation","type":"gas, oil","lon":28.5498,"lat":55.5264,"emissions":535690.0},{"id":32437265,"name":"Krichevcementnoshifer Cement Plant","sector":"cement","type":"integrated dry","lon":31.72442,"lat":53.73078,"emissions":489669.6},{"id":447498,"name":"Mogilev CHP-2 power station","sector":"electricity-generation","type":"gas","lon":30.3412,"lat":53.8125,"emissions":418820.0},{"id":447495,"name":"Grodno CHP-2 power station","sector":"electricity-generation","type":"gas","lon":23.9277,"lat":53.6673,"emissions":409020.0},{"id":447494,"name":"Gomel CHP-2 power station","sector":"electricity-generation","type":"gas","lon":30.8179,"lat":52.4493,"emissions":351040.0},{"id":1566467,"name":"Byelorussian Steel Works","sector":"iron-and-steel","type":"EAF","lon":29.98699,"lat":52.84919,"emissions":247047.8},{"id":447502,"name":"Svetlogorsk CHP power station","sector":"electricity-generation","type":"gas","lon":29.77,"lat":52.6277,"emissions":212950.0},{"id":447499,"name":"Mozyr CHP power station","sector":"electricity-generation","type":"gas","lon":29.3146,"lat":51.9044,"emissions":191660.0},{"id":451101,"name":"Bobruisk CHP-2 power station","sector":"electricity-generation","type":"gas","lon":29.2058,"lat":53.1895,"emissions":191400.0},{"id":25450294,"name":"Vitebsk Thermal Power Plant Belarus","sector":"electricity-generation","type":"gas","lon":30.1355,"lat":55.1689,"emissions":156190.0},{"id":731993,"name":"Naftan JSC Polymir, Novopolotsk","sector":"petrochemical-steam-cracking","type":"Flex Integrated","lon":28.57273,"lat":55.50498,"emissions":155263.1},{"id":448582,"name":"Minsk CHP-2 power station","sector":"electricity-generation","type":"gas, other_fossil","lon":27.5759,"lat":53.8839,"emissions":86397.0},{"id":44375336,"name":"Bellesbumprom Pulp Mill","sector":"pulp-and-paper","type":"Pulp misc. (known types include chemical wood pulp, mechanical and semi-chemical wood pulp, semi-chemical wood pulp)","lon":27.55753,"lat":53.89777,"emissions":84535.5},{"id":44375337,"name":"Svietlogorsk Pulp and Board Mill","sector":"pulp-and-paper","type":"Pulp misc. (known types include chemical wood pulp, mechanical and semi-chemical wood pulp, semi-chemical wood pulp)","lon":29.77977,"lat":52.61707,"emissions":84535.5},{"id":25452870,"name":"Zhodino CHP CCGT Power Plant","sector":"electricity-generation","type":"gas","lon":28.3505,"lat":54.0941,"emissions":76667.0},{"id":452703,"name":"Borisov CHP power station","sector":"electricity-generation","type":"gas, other_fossil","lon":28.3501,"lat":54.0936,"emissions":59962.0},{"id":447500,"name":"Orsha CHP power station","sector":"electricity-generation","type":"gas, other_fossil","lon":30.3926,"lat":54.4805,"emissions":49288.0},{"id":25450287,"name":"Lida Power Plant Belarus","sector":"electricity-generation","type":"gas","lon":25.291,"lat":53.9011,"emissions":47740.0},{"id":38476395,"name":"Ltp Belvit","sector":"textiles-leather-apparel","type":"Cut & Sew|Cutting|Packaging|Product Finishing","lon":29.66129,"lat":54.9571,"emissions":36747.3},{"id":25453908,"name":"Gomel-1 CHP Power Plant Belarus","sector":"electricity-generation","type":"gas, other_fossil","lon":31.0031,"lat":52.4141,"emissions":32502.0},{"id":45257098,"name":"Grodna Azot","sector":"chemicals","type":"methanol","lon":23.91635,"lat":53.67539,"emissions":24220.2}]}