{"iso_code":"COD","generated_at":"2026-06-02T15:37:27-03:00","gas":"co2e_100yr","sectors":["power","fossil-fuel-operations","manufacturing","mineral-extraction"],"assets":[{"id":45944721,"name":"Dikuluwe-Mashamba West Mine","sector":"copper-mining","type":"copper-mine","lon":25.36989,"lat":-10.7424,"emissions":1829997.0},{"id":45944867,"name":"Tenke Fungurume Mine","sector":"copper-mining","type":"copper-mine","lon":26.2016,"lat":-10.58969,"emissions":1340404.0},{"id":53058718,"name":"Democratic Republic of Congo_Lower Congo_Conventional shelf","sector":"oil-and-gas-production","type":"","lon":12.18662,"lat":-5.88629,"emissions":674748.1},{"id":42546131,"name":"Kabimba Cement Plant","sector":"cement","type":"integrated dry","lon":29.33907,"lat":-5.55685,"emissions":574192.4},{"id":42547316,"name":"Nyumba Ya Akiba Cement Plant","sector":"cement","type":"integrated dry","lon":14.20497,"lat":-5.63121,"emissions":497633.4},{"id":1896547,"name":"PPC Barnet Kimpese Cement Plant","sector":"cement","type":"integrated dry","lon":14.33595,"lat":-5.5391,"emissions":453463.9},{"id":45944861,"name":"Sico Mine","sector":"copper-mining","type":"copper-mine","lon":25.37627,"lat":-10.72916,"emissions":405608.0},{"id":53058717,"name":"Democratic Republic of Congo_Lower Congo_Conventional onshore","sector":"oil-and-gas-production","type":"","lon":12.33916,"lat":-5.85594,"emissions":334544.1},{"id":45944838,"name":"Mutanda Mine","sector":"copper-mining","type":"copper-mine","lon":25.81359,"lat":-10.78581,"emissions":317873.0},{"id":45944725,"name":"Frontier Mine","sector":"copper-mining","type":"copper-mine","lon":28.47547,"lat":-12.73372,"emissions":310395.0},{"id":45944799,"name":"Kolwezi Mine","sector":"copper-mining","type":"copper-mine","lon":25.45709,"lat":-10.72741,"emissions":288836.0},{"id":45944822,"name":"Metalkol RTR Operation","sector":"copper-mining","type":"copper-mine","lon":25.42137,"lat":-10.64052,"emissions":279608.0},{"id":45944874,"name":"Kamoa-Kakula Operation","sector":"copper-mining","type":"copper-mine","lon":25.19736,"lat":-10.88562,"emissions":279113.0},{"id":45944794,"name":"Kipese Mine","sector":"copper-mining","type":"copper-mine","lon":26.52333,"lat":-11.06783,"emissions":273601.0},{"id":45944800,"name":"KOV Mine","sector":"copper-mining","type":"copper-mine","lon":25.41875,"lat":-10.71163,"emissions":229744.0},{"id":45944845,"name":"Pumpi Mine","sector":"copper-mining","type":"copper-mine","lon":25.98639,"lat":-10.637,"emissions":220585.0},{"id":45944819,"name":"Mashamba East Mine","sector":"copper-mining","type":"copper-mine","lon":25.39304,"lat":-10.7434,"emissions":213570.0},{"id":45944736,"name":"Kakanda Mine","sector":"copper-mining","type":"copper-mine","lon":26.40521,"lat":-10.73463,"emissions":139118.0},{"id":45944741,"name":"Kalukundi Mine","sector":"copper-mining","type":"copper-mine","lon":25.89726,"lat":-10.62352,"emissions":126941.0},{"id":45944806,"name":"Ludjiba Mine","sector":"copper-mining","type":"copper-mine","lon":26.55753,"lat":-10.97016,"emissions":120220.0},{"id":45944795,"name":"Kipoi Mine","sector":"copper-mining","type":"copper-mine","lon":27.09986,"lat":-11.24614,"emissions":120188.0},{"id":45944724,"name":"Etoile Mine","sector":"copper-mining","type":"copper-mine","lon":27.58381,"lat":-11.63401,"emissions":104961.0},{"id":45944844,"name":"Nsase Mine","sector":"copper-mining","type":"copper-mine","lon":27.07751,"lat":-11.45246,"emissions":104171.4},{"id":45944750,"name":"Kamoya Sud Mine","sector":"copper-mining","type":"copper-mine","lon":26.58256,"lat":-10.88605,"emissions":104171.4},{"id":45944817,"name":"Mabende Mine","sector":"copper-mining","type":"copper-mine","lon":27.45263,"lat":-11.13962,"emissions":104171.4},{"id":45944850,"name":"Sabinga Mine","sector":"copper-mining","type":"copper-mine","lon":26.79382,"lat":-10.95239,"emissions":104171.4},{"id":45944836,"name":"Musonoi Mine","sector":"copper-mining","type":"copper-mine","lon":25.46775,"lat":-10.7002,"emissions":104171.4},{"id":45944753,"name":"Kamwali Mine","sector":"copper-mining","type":"copper-mine","lon":27.21238,"lat":-11.15094,"emissions":104171.4},{"id":45944811,"name":"Luiswishi Mine","sector":"copper-mining","type":"copper-mine","lon":27.44157,"lat":-11.51548,"emissions":104171.4},{"id":45944814,"name":"Lupoto Mine","sector":"copper-mining","type":"copper-mine","lon":27.26736,"lat":-11.59609,"emissions":104171.4},{"id":45944728,"name":"Judeira Mine","sector":"copper-mining","type":"copper-mine","lon":27.06355,"lat":-11.22321,"emissions":104171.4},{"id":45944727,"name":"Hanrui Mine","sector":"copper-mining","type":"copper-mine","lon":25.46892,"lat":-10.64159,"emissions":104171.4},{"id":45944715,"name":"Bisie Mine","sector":"copper-mining","type":"copper-mine","lon":27.74395,"lat":-1.03807,"emissions":104171.4},{"id":45944852,"name":"Shamitumba Mine","sector":"copper-mining","type":"copper-mine","lon":26.59872,"lat":-10.96588,"emissions":104171.4},{"id":45944726,"name":"Goma Mine","sector":"copper-mining","type":"copper-mine","lon":25.88482,"lat":-10.61326,"emissions":104171.4},{"id":45944774,"name":"Kate Mine","sector":"copper-mining","type":"copper-mine","lon":26.45638,"lat":-10.43394,"emissions":104171.4},{"id":45944864,"name":"Sokoroshe II Mine","sector":"copper-mining","type":"copper-mine","lon":27.34157,"lat":-11.34123,"emissions":104171.4},{"id":45944775,"name":"Kawesitu Mine","sector":"copper-mining","type":"copper-mine","lon":26.25492,"lat":-11.07933,"emissions":104171.4},{"id":45944855,"name":"Shikiya Bintu Mine","sector":"copper-mining","type":"copper-mine","lon":25.66839,"lat":-10.76862,"emissions":104171.4},{"id":45944772,"name":"Kasonta Mine","sector":"copper-mining","type":"copper-mine","lon":27.27556,"lat":-11.60049,"emissions":104171.4},{"id":45944833,"name":"Mulondo Mine","sector":"copper-mining","type":"copper-mine","lon":25.98979,"lat":-10.96722,"emissions":104171.4},{"id":45944810,"name":"Luishia Sud Mine","sector":"copper-mining","type":"copper-mine","lon":27.01714,"lat":-11.18761,"emissions":104171.4},{"id":45944768,"name":"Karu Mine","sector":"copper-mining","type":"copper-mine","lon":27.2774,"lat":-11.62958,"emissions":104171.4},{"id":45944720,"name":"Dikulushi Mine","sector":"copper-mining","type":"copper-mine","lon":28.27067,"lat":-8.89308,"emissions":104171.4},{"id":45944828,"name":"Mufunta Mine","sector":"copper-mining","type":"copper-mine","lon":27.61923,"lat":-11.71048,"emissions":104171.4},{"id":45944714,"name":"Baraka Mine","sector":"copper-mining","type":"copper-mine","lon":25.91299,"lat":-10.6194,"emissions":104171.4},{"id":45944826,"name":"Mirungwe Mine","sector":"copper-mining","type":"copper-mine","lon":26.2244,"lat":-11.09584,"emissions":104171.4},{"id":45944868,"name":"Tilwezembe Mine","sector":"copper-mining","type":"copper-mine","lon":25.69454,"lat":-10.80008,"emissions":104171.4},{"id":45944816,"name":"Mabaya Mine","sector":"copper-mining","type":"copper-mine","lon":27.76524,"lat":-12.11574,"emissions":104171.4},{"id":45944827,"name":"Mitonte Mine","sector":"copper-mining","type":"copper-mine","lon":26.20706,"lat":-11.09211,"emissions":104171.4},{"id":45944749,"name":"Kamoya Central Mine","sector":"copper-mining","type":"copper-mine","lon":26.57671,"lat":-10.8788,"emissions":104171.4},{"id":45944840,"name":"Mwepu Mine","sector":"copper-mining","type":"copper-mine","lon":27.21239,"lat":-11.55184,"emissions":104171.4},{"id":45944865,"name":"Swambo Mine","sector":"copper-mining","type":"copper-mine","lon":26.24126,"lat":-11.08915,"emissions":104171.4},{"id":45944860,"name":"Shomberwa Mine","sector":"copper-mining","type":"copper-mine","lon":26.60068,"lat":-11.04172,"emissions":104171.4},{"id":45944857,"name":"Shinkolobwe Signal Mine","sector":"copper-mining","type":"copper-mine","lon":26.57314,"lat":-11.04555,"emissions":104171.4},{"id":45944784,"name":"Kileba Mine","sector":"copper-mining","type":"copper-mine","lon":27.12403,"lat":-11.28248,"emissions":104171.4},{"id":45944837,"name":"Musoshi Mine","sector":"copper-mining","type":"copper-mine","lon":27.72871,"lat":-12.27095,"emissions":104171.4},{"id":45944769,"name":"Karuano Mine","sector":"copper-mining","type":"copper-mine","lon":26.95797,"lat":-11.15312,"emissions":104171.4},{"id":45944789,"name":"Kimpe Mine","sector":"copper-mining","type":"copper-mine","lon":27.90022,"lat":-12.01583,"emissions":104171.4},{"id":45944835,"name":"Mushima Mine","sector":"copper-mining","type":"copper-mine","lon":25.36873,"lat":-11.32588,"emissions":104171.4},{"id":45944798,"name":"Kisunka Mine","sector":"copper-mining","type":"copper-mine","lon":26.69669,"lat":-10.98144,"emissions":104171.4},{"id":45944792,"name":"Kinsevere Mine","sector":"copper-mining","type":"copper-mine","lon":27.56712,"lat":-11.36917,"emissions":102460.0},{"id":32438275,"name":"Lukala Cement Plant","sector":"cement","type":"integrated dry","lon":14.52598,"lat":-5.50905,"emissions":100029.4},{"id":45944820,"name":"Mashitu Mine","sector":"copper-mining","type":"copper-mine","lon":25.90673,"lat":-10.66645,"emissions":98742.0},{"id":45944825,"name":"Miniere de Kalumbwe Myunga Mine","sector":"copper-mining","type":"copper-mine","lon":25.90904,"lat":-10.77293,"emissions":98449.0},{"id":45944746,"name":"Kamfundwa Mine","sector":"copper-mining","type":"copper-mine","lon":26.59072,"lat":-10.81386,"emissions":87915.0},{"id":25454146,"name":"Kinkasi power station","sector":"electricity-generation","type":"gas","lon":12.3648,"lat":-5.9282,"emissions":83460.0},{"id":45944809,"name":"Luishia Mine","sector":"copper-mining","type":"copper-mine","lon":27.00499,"lat":-11.16811,"emissions":78114.0},{"id":45944760,"name":"Kansuki Mine","sector":"copper-mining","type":"copper-mine","lon":25.86063,"lat":-10.73824,"emissions":77275.0},{"id":45944733,"name":"Kabolela Mine","sector":"copper-mining","type":"copper-mine","lon":26.47737,"lat":-10.84407,"emissions":73123.0},{"id":45944743,"name":"Kamatanda Mine","sector":"copper-mining","type":"copper-mine","lon":26.77333,"lat":-10.9533,"emissions":71810.0},{"id":45944797,"name":"Kisanfu Mine","sector":"copper-mining","type":"copper-mine","lon":25.96603,"lat":-10.76808,"emissions":71555.0},{"id":45944719,"name":"Deziwa Mine","sector":"copper-mining","type":"copper-mine","lon":25.76749,"lat":-10.78563,"emissions":70960.0},{"id":53059561,"name":"Democratic Republic of Congo_Lower Congo_Conventional shelf","sector":"oil-and-gas-transport","type":"","lon":12.18662,"lat":-5.88629,"emissions":69816.8},{"id":45944722,"name":"Disele Sud Mine","sector":"copper-mining","type":"copper-mine","lon":26.25268,"lat":-10.7519,"emissions":69615.0},{"id":45944854,"name":"Shangalowe Mine","sector":"copper-mining","type":"copper-mine","lon":26.57112,"lat":-10.80853,"emissions":62728.0},{"id":45944787,"name":"Kimbwe Mine","sector":"copper-mining","type":"copper-mine","lon":27.44971,"lat":-11.1648,"emissions":62393.0},{"id":45944740,"name":"Kalongwe Mine","sector":"copper-mining","type":"copper-mine","lon":25.23012,"lat":-11.01594,"emissions":49847.0},{"id":45944744,"name":"Kambove Principal Mine","sector":"copper-mining","type":"copper-mine","lon":26.61127,"lat":-10.88291,"emissions":49068.0},{"id":45944780,"name":"Kibolwe Mine","sector":"copper-mining","type":"copper-mine","lon":26.19482,"lat":-11.17453,"emissions":42186.0}]}