{"iso_code":"CZE","generated_at":"2026-06-02T15:37:32-03:00","gas":"co2e_100yr","sectors":["power","fossil-fuel-operations","manufacturing","mineral-extraction"],"assets":[{"id":25455880,"name":"Pocerady power station","sector":"electricity-generation","type":"coal, gas, other_fossil","lon":13.6747,"lat":50.4267,"emissions":4206500.0},{"id":25450413,"name":"Tusimice power station","sector":"electricity-generation","type":"coal","lon":13.3443,"lat":50.3829,"emissions":4190900.0},{"id":447611,"name":"Prunerov power station","sector":"electricity-generation","type":"coal","lon":13.259,"lat":50.418,"emissions":2996500.0},{"id":25450404,"name":"Chvaletice power station","sector":"electricity-generation","type":"coal","lon":15.4505,"lat":50.0281,"emissions":2672800.0},{"id":25450407,"name":"Ledvice power station","sector":"electricity-generation","type":"coal","lon":13.7798,"lat":50.5766,"emissions":2658190.0},{"id":1566770,"name":"GFG Liberty Ostrava steel plant","sector":"iron-and-steel","type":"BOF","lon":18.32165,"lat":49.79284,"emissions":2133274.3},{"id":32440699,"name":"TZMS Třinecké železárny Trinec steel plant","sector":"iron-and-steel","type":"BF/BOF","lon":18.64966,"lat":49.69023,"emissions":2045713.6},{"id":448046,"name":"Kladno power station","sector":"electricity-generation","type":"coal, gas","lon":14.1282,"lat":50.1535,"emissions":1645100.0},{"id":25450405,"name":"Detmarovice power station","sector":"electricity-generation","type":"coal, oil","lon":18.4689,"lat":49.9032,"emissions":1360180.0},{"id":712382,"name":"Orlen Unipetrol Litvinov Refinery","sector":"oil-and-gas-refining","type":"Deep Conversion- Resid HC","lon":13.6123,"lat":50.56326,"emissions":1150974.3},{"id":2506,"name":"Melnik power station","sector":"electricity-generation","type":"coal","lon":14.4138,"lat":50.4146,"emissions":1055660.0},{"id":25450411,"name":"Tisova power station","sector":"electricity-generation","type":"coal","lon":12.6103,"lat":50.1494,"emissions":1019470.0},{"id":447942,"name":"Opatovice power station","sector":"electricity-generation","type":"coal","lon":15.7933,"lat":50.1265,"emissions":1010100.0},{"id":3163394,"name":"Bilina Coal Mine","sector":"coal-mining","type":"Surface","lon":13.71099,"lat":50.56966,"emissions":788622.0},{"id":15871,"name":"Karvina Coal Mines","sector":"coal-mining","type":"Underground","lon":18.5485,"lat":49.81707,"emissions":759402.8},{"id":25455163,"name":"TAMEH OSTRAVA","sector":"electricity-generation","type":"coal","lon":18.3146,"lat":49.7943,"emissions":690700.0},{"id":18648344,"name":"Unipetrol, Litvinov","sector":"petrochemical-steam-cracking","type":"Flex Integrated","lon":13.60227,"lat":50.56827,"emissions":650451.8},{"id":25451695,"name":"Komorany power station","sector":"electricity-generation","type":"coal","lon":13.5721,"lat":50.5223,"emissions":643830.0},{"id":447613,"name":"Trebovice power station","sector":"electricity-generation","type":"coal, gas","lon":18.2113,"lat":49.8319,"emissions":632910.0},{"id":32438306,"name":"Mokra Cement Plant","sector":"cement","type":"integrated dry","lon":16.77418,"lat":49.2137,"emissions":559809.3},{"id":15872,"name":"Vrsany Coal Mine","sector":"coal-mining","type":"Surface","lon":13.56196,"lat":50.4918,"emissions":548887.6},{"id":32438305,"name":"Prachovice Cement Plant","sector":"cement","type":"integrated dry","lon":15.6392,"lat":49.89543,"emissions":460659.6},{"id":449305,"name":"Vřesová power station","sector":"electricity-generation","type":"coal, other_fossil, gas","lon":12.6959,"lat":50.2558,"emissions":452910.0},{"id":3163398,"name":"Nástup-Tušimice Coal Mine","sector":"coal-mining","type":"Surface","lon":13.38645,"lat":50.40643,"emissions":423433.7},{"id":25451656,"name":"Plzen CHP power station","sector":"electricity-generation","type":"coal","lon":13.3988,"lat":49.7543,"emissions":413210.0},{"id":42546160,"name":"Radotin Cement Plant","sector":"cement","type":"integrated dry","lon":14.33937,"lat":49.9957,"emissions":410814.7},{"id":32438304,"name":"Hranice Cement Plant","sector":"cement","type":"integrated dry","lon":17.76492,"lat":49.56052,"emissions":394807.1},{"id":25455166,"name":"UNIPETROL T700","sector":"electricity-generation","type":"coal","lon":13.622,"lat":50.5657,"emissions":389210.0},{"id":32438307,"name":"Cizkovice Cement Plant","sector":"cement","type":"integrated dry","lon":14.04426,"lat":50.48924,"emissions":389139.2},{"id":712383,"name":"Orlen Unipetrol Kralupy Refinery","sector":"oil-and-gas-refining","type":"Hydroskimming","lon":14.32684,"lat":50.25771,"emissions":364859.3},{"id":451081,"name":"Mondi Steti power station","sector":"electricity-generation","type":"coal, biomass","lon":14.3757,"lat":50.4609,"emissions":337810.0},{"id":447610,"name":"Porici power station","sector":"electricity-generation","type":"coal","lon":15.964,"lat":50.5728,"emissions":331780.0},{"id":452355,"name":"Malesice power station","sector":"electricity-generation","type":"coal","lon":14.5253,"lat":50.085,"emissions":331780.0},{"id":4401810,"name":"Hodonin power station","sector":"electricity-generation","type":"coal, biomass","lon":17.1201,"lat":48.8478,"emissions":322740.0},{"id":451872,"name":"Plzenska energetika ELU III power station","sector":"electricity-generation","type":"coal, oil","lon":13.3455,"lat":49.7395,"emissions":294140.0},{"id":38468988,"name":"Závod Řetenice, Coating, Vedení Společnosti","sector":"glass","type":"Glass Manufacturing","lon":13.8011,"lat":50.64053,"emissions":281544.1},{"id":33998934,"name":"CZE-Most_ammonia","sector":"chemicals","type":"ammonia","lon":13.62536,"lat":50.55218,"emissions":277200.0},{"id":25450414,"name":"TRMICE","sector":"electricity-generation","type":"coal","lon":13.9854,"lat":50.6444,"emissions":276690.0},{"id":452356,"name":"Trinec-E3 power station","sector":"electricity-generation","type":"coal","lon":18.6476,"lat":49.684,"emissions":212910.0},{"id":52975681,"name":"Sko-Energo power station","sector":"electricity-generation","type":"coal, biomass","lon":14.9331,"lat":50.4172,"emissions":211140.0},{"id":25452571,"name":"Karvina power station","sector":"electricity-generation","type":"coal","lon":18.4803,"lat":49.8235,"emissions":165890.0},{"id":25453652,"name":"Zlin power station","sector":"electricity-generation","type":"coal","lon":17.654,"lat":49.225,"emissions":151850.0},{"id":448611,"name":"Olomouc power station","sector":"electricity-generation","type":"coal, gas","lon":17.3041,"lat":49.5709,"emissions":150820.0},{"id":451071,"name":"Kralupy power station","sector":"electricity-generation","type":"gas","lon":14.3207,"lat":50.2588,"emissions":134530.0},{"id":4401807,"name":"Špitálka power station","sector":"electricity-generation","type":"coal, gas","lon":16.6226,"lat":49.1964,"emissions":134015.0},{"id":452359,"name":"Pribram power station","sector":"electricity-generation","type":"coal","lon":14.003,"lat":49.696,"emissions":127846.0},{"id":44375502,"name":"OP Papírna s.r.o. - Delfort","sector":"pulp-and-paper","type":"Pulp misc. (known types include mechanical and semi-chemical wood pulp)","lon":16.86539,"lat":49.95967,"emissions":127775.2},{"id":44375503,"name":"Biocel Paskov Pulp Mill","sector":"pulp-and-paper","type":"Chemical wood pulp","lon":18.2946,"lat":49.71797,"emissions":127775.2},{"id":38467374,"name":"Závod Mokrá","sector":"lime","type":"Lime Production In Rotary Kilns","lon":16.77405,"lat":49.21544,"emissions":104405.9},{"id":38480340,"name":"Cukrovar Dobrovice","sector":"food-beverage-tobacco","type":"Animal And Vegetable Products From The Food And Beverage Sector","lon":14.96453,"lat":50.36813,"emissions":102924.5},{"id":3163396,"name":"Jiří Coal Mine","sector":"coal-mining","type":"Surface","lon":12.6836,"lat":50.2161,"emissions":97358.2},{"id":15870,"name":"ČSA Coal Mine","sector":"coal-mining","type":"Surface","lon":13.5253,"lat":50.54268,"emissions":88507.4},{"id":449768,"name":"Červený Mlýn power station","sector":"electricity-generation","type":"other_fossil, gas","lon":16.6063,"lat":49.2162,"emissions":81996.0},{"id":450057,"name":"Plana Nad Luznici power station","sector":"electricity-generation","type":"coal, gas","lon":14.7021,"lat":49.3685,"emissions":65864.0},{"id":25454237,"name":"Prostějov power station","sector":"electricity-generation","type":"gas","lon":17.1435,"lat":49.4625,"emissions":63668.0},{"id":25454486,"name":"Teplárna Trmice power station","sector":"electricity-generation","type":"gas","lon":13.9854,"lat":50.6462,"emissions":54886.0},{"id":38472848,"name":"Amreiters S.R.O.","sector":"textiles-leather-apparel","type":"Wet Processing","lon":12.20082,"lat":50.21268,"emissions":41055.1},{"id":38476979,"name":"Alena Cendelinova","sector":"textiles-leather-apparel","type":"Finished Goods","lon":14.15055,"lat":49.34346,"emissions":41055.1},{"id":38476920,"name":"Ace Sport S.R.O.","sector":"textiles-leather-apparel","type":"Finished Goods","lon":14.15913,"lat":49.31362,"emissions":41055.1},{"id":38475103,"name":"Personna International Cz S.R.O.","sector":"textiles-leather-apparel","type":"Packing| Cartridge Assembly| Moulding","lon":13.87901,"lat":50.66047,"emissions":41055.1},{"id":38474175,"name":"Intimidea  Sro","sector":"textiles-leather-apparel","type":"Final Product Assembly","lon":15.58812,"lat":49.40523,"emissions":41055.1},{"id":38477504,"name":"Gufex S.R.O.","sector":"textiles-leather-apparel","type":"Finished Goods","lon":17.88123,"lat":49.38773,"emissions":41055.1},{"id":38480346,"name":"Olma, A.S.","sector":"food-beverage-tobacco","type":"Animal And Vegetable Products From The Food And Beverage Sector","lon":17.29873,"lat":49.5858,"emissions":34999.9},{"id":38480282,"name":"Cukrovar České Meziříčí","sector":"food-beverage-tobacco","type":"Animal And Vegetable Products From The Food And Beverage Sector","lon":16.05102,"lat":50.28568,"emissions":34999.9},{"id":38480302,"name":"Glencore Agriculture Czech S.R.O.","sector":"food-beverage-tobacco","type":"Animal And Vegetable Products From The Food And Beverage Sector","lon":14.05287,"lat":50.65398,"emissions":34999.9},{"id":38480303,"name":"Agrodružstvo Jevišovice - Středisko Jevišovice","sector":"food-beverage-tobacco","type":"Animal And Vegetable Products From The Food And Beverage Sector","lon":15.99444,"lat":48.97722,"emissions":34999.9},{"id":38480306,"name":"Skaličan A.S.","sector":"food-beverage-tobacco","type":"Animal And Vegetable Products From The Food And Beverage Sector","lon":16.03796,"lat":50.3858,"emissions":34999.9},{"id":38480307,"name":"Adm Olomouc S.R.O.","sector":"food-beverage-tobacco","type":"Animal And Vegetable Products From The Food And Beverage Sector","lon":17.30911,"lat":49.58485,"emissions":34999.9},{"id":38480308,"name":"Žerotín, A.S.","sector":"food-beverage-tobacco","type":"Animal And Vegetable Products From The Food And Beverage Sector","lon":17.30486,"lat":48.88931,"emissions":34999.9},{"id":38480310,"name":"Středisko Opatovec","sector":"food-beverage-tobacco","type":"Animal And Vegetable Products From The Food And Beverage Sector","lon":16.47361,"lat":49.80334,"emissions":34999.9},{"id":38480311,"name":"Pepsico Cz S.R.O. Praha","sector":"food-beverage-tobacco","type":"Animal And Vegetable Products From The Food And Beverage Sector","lon":14.52094,"lat":50.10952,"emissions":34999.9},{"id":38480312,"name":"Cukrovar Vrbátky A.S.","sector":"food-beverage-tobacco","type":"Animal And Vegetable Products From The Food And Beverage Sector","lon":17.20339,"lat":49.50613,"emissions":34999.9},{"id":38480314,"name":"Raciola Uherský Brod, S.R.O.","sector":"food-beverage-tobacco","type":"Animal And Vegetable Products From The Food And Beverage Sector","lon":17.64075,"lat":49.02314,"emissions":34999.9},{"id":38480339,"name":"Pivovar Plzeň","sector":"food-beverage-tobacco","type":"Animal And Vegetable Products From The Food And Beverage Sector","lon":13.38698,"lat":49.74688,"emissions":34999.9},{"id":38480342,"name":"Hamé S.R.O.","sector":"food-beverage-tobacco","type":"Animal And Vegetable Products From The Food And Beverage Sector","lon":17.46882,"lat":49.12038,"emissions":34999.9},{"id":38480343,"name":"Závod Vodňany","sector":"food-beverage-tobacco","type":"Animal And Vegetable Products From The Food And Beverage Sector","lon":14.19187,"lat":49.14148,"emissions":34999.9},{"id":38480344,"name":"Litovelská Cukrovarna, A.S.","sector":"food-beverage-tobacco","type":"Animal And Vegetable Products From The Food And Beverage Sector","lon":17.07195,"lat":49.70959,"emissions":34999.9},{"id":38480345,"name":"Drůbežářský Závod Klatovy A. S.","sector":"food-beverage-tobacco","type":"Animal And Vegetable Products From The Food And Beverage Sector","lon":13.29895,"lat":49.38305,"emissions":34999.9},{"id":38480347,"name":"Agricol S.R.O.","sector":"food-beverage-tobacco","type":"Animal And Vegetable Products From The Food And Beverage Sector","lon":16.26695,"lat":49.71924,"emissions":34999.9},{"id":38480305,"name":"Moravskoslezské Cukrovary, A.S.  Závod Hrušovany","sector":"food-beverage-tobacco","type":"Animal And Vegetable Products From The Food And Beverage Sector","lon":16.40427,"lat":48.81122,"emissions":34999.9}]}