{"iso_code":"DMA","generated_at":"2026-06-02T14:19:55-03:00","gas":"co2e_100yr","sectors":["power","fossil-fuel-operations","manufacturing","mineral-extraction","transportation"],"assets":[{"id":2788496,"name":"Roseau","sector":"international-shipping","type":"","lon":-61.39194,"lat":15.30322,"emissions":58151.2},{"id":1930060,"name":"Portsmouth","sector":"domestic-shipping","type":"","lon":-61.46473,"lat":15.57029,"emissions":27890.0},{"id":1930061,"name":"Roseau","sector":"domestic-shipping","type":"","lon":-61.39194,"lat":15.30322,"emissions":20156.3},{"id":3598046,"name":"Saint George Parish","sector":"road-transportation","type":"","lon":-61.34841,"lat":15.30653,"emissions":13866.0},{"id":3598052,"name":"Saint Paul Parish","sector":"road-transportation","type":"","lon":-61.36221,"lat":15.36445,"emissions":12988.4},{"id":3598044,"name":"Saint Andrew Parish","sector":"road-transportation","type":"","lon":-61.35196,"lat":15.54593,"emissions":11898.9},{"id":3598048,"name":"Saint Joseph Parish","sector":"road-transportation","type":"","lon":-61.38269,"lat":15.445,"emissions":8933.8},{"id":3166397,"name":"Douglas-Charles Airport","sector":"international-aviation","type":"international","lon":-61.30108,"lat":15.54667,"emissions":8850.9},{"id":2788495,"name":"Portsmouth","sector":"international-shipping","type":"","lon":-61.46473,"lat":15.57029,"emissions":7981.2},{"id":3598045,"name":"Saint David Parish","sector":"road-transportation","type":"","lon":-61.28798,"lat":15.42208,"emissions":7514.3},{"id":3598051,"name":"Saint Patrick Parish","sector":"road-transportation","type":"","lon":-61.2964,"lat":15.27765,"emissions":7106.3},{"id":3598047,"name":"Saint John Parish","sector":"road-transportation","type":"","lon":-61.4346,"lat":15.57431,"emissions":6801.8},{"id":3598043,"name":"Saint Peter Parish","sector":"road-transportation","type":"","lon":-61.44052,"lat":15.50046,"emissions":3475.9},{"id":3598049,"name":"Saint Luke Parish","sector":"road-transportation","type":"","lon":-61.36091,"lat":15.25181,"emissions":1430.6},{"id":3598050,"name":"Saint Mark Parish","sector":"road-transportation","type":"","lon":-61.34913,"lat":15.22778,"emissions":1075.6},{"id":38887542,"name":"Unknown name","sector":"international-shipping","type":"","lon":-61.4069,"lat":15.3697,"emissions":655.0},{"id":45112991,"name":"Unknown name","sector":"domestic-shipping","type":"","lon":-61.407,"lat":15.3696,"emissions":173.7}]}