{"iso_code":"EGY","generated_at":"2026-06-02T15:37:36-03:00","gas":"co2e_100yr","sectors":["power","fossil-fuel-operations","manufacturing","mineral-extraction"],"assets":[{"id":53058759,"name":"Egypt_Western Desert_Conventional onshore","sector":"oil-and-gas-production","type":"","lon":28.02624,"lat":30.28662,"emissions":10709502.3},{"id":452341,"name":"Beni Suef power plant","sector":"electricity-generation","type":"other_fossil, gas","lon":31.0076,"lat":28.921,"emissions":8679200.0},{"id":452594,"name":"New Capital power station","sector":"electricity-generation","type":"other_fossil, gas","lon":31.7558,"lat":29.9094,"emissions":7583800.0},{"id":452593,"name":"Burullus power plant","sector":"electricity-generation","type":"other_fossil, gas","lon":30.8067,"lat":31.5307,"emissions":7583800.0},{"id":447824,"name":"Kuriemat power station","sector":"electricity-generation","type":"gas, other_fossil","lon":31.225,"lat":29.2718,"emissions":5776900.0},{"id":447820,"name":"Cairo West II power plant","sector":"electricity-generation","type":"gas","lon":31.1666,"lat":30.1384,"emissions":5461000.0},{"id":25454654,"name":"South Helwan power station","sector":"electricity-generation","type":"gas","lon":31.3369,"lat":29.8483,"emissions":5298000.0},{"id":447832,"name":"Sidi Krir power plant","sector":"electricity-generation","type":"gas, other_fossil","lon":29.6604,"lat":31.0444,"emissions":4829400.0},{"id":53058751,"name":"Egypt_Gulf of Suez_Conventional onshore","sector":"oil-and-gas-production","type":"","lon":33.11437,"lat":28.1165,"emissions":4609967.1},{"id":42547371,"name":"National Cement New Beni Suef Cement Plant","sector":"cement","type":"integrated dry","lon":31.20242,"lat":29.01697,"emissions":4345505.7},{"id":1896683,"name":"Lafarge Attaka Cement Plant","sector":"cement","type":"integrated dry","lon":32.0869,"lat":29.80615,"emissions":4073230.8},{"id":447813,"name":"Abu Qir power plant","sector":"electricity-generation","type":"gas","lon":30.1423,"lat":31.2692,"emissions":3997200.0},{"id":45257029,"name":"Abu Qir Fertilizer Complex","sector":"chemicals","type":"ammonia","lon":30.09665,"lat":31.27168,"emissions":3605693.5},{"id":450005,"name":"Nubaria power plant","sector":"electricity-generation","type":"gas, other_fossil","lon":30.6671,"lat":30.6993,"emissions":3574900.0},{"id":451746,"name":"North Giza power plant","sector":"electricity-generation","type":"gas, other_fossil","lon":30.9471,"lat":30.2483,"emissions":3554900.0},{"id":25454232,"name":"Ain Sokhna power plant","sector":"electricity-generation","type":"gas","lon":32.3546,"lat":29.6211,"emissions":3532000.0},{"id":53058752,"name":"Egypt_Gulf of Suez_Conventional shelf","sector":"oil-and-gas-production","type":"","lon":33.38582,"lat":28.21044,"emissions":3456847.6},{"id":447831,"name":"Shoubra El-Kheima power plant","sector":"electricity-generation","type":"gas, oil","lon":31.2373,"lat":30.1243,"emissions":3423400.0},{"id":447815,"name":"Walidia power station","sector":"electricity-generation","type":"gas, oil","lon":31.1608,"lat":27.2123,"emissions":3396300.0},{"id":45257062,"name":"Damietta Fertilizers Complex","sector":"chemicals","type":"ammonia","lon":31.7799,"lat":31.46299,"emissions":3277903.2},{"id":447816,"name":"Ataka Steam power plant","sector":"electricity-generation","type":"gas","lon":32.4716,"lat":29.9361,"emissions":3151600.0},{"id":1896682,"name":"Borg El Arab Cement Plant","sector":"cement","type":"integrated dry","lon":29.46569,"lat":30.88035,"emissions":2975831.6},{"id":451954,"name":"6 October power plant","sector":"electricity-generation","type":"gas, other_fossil","lon":31.0464,"lat":30.0538,"emissions":2970000.0},{"id":452167,"name":"West Damietta power plant","sector":"electricity-generation","type":"gas, other_fossil","lon":31.6047,"lat":31.4429,"emissions":2798100.0},{"id":453085,"name":"El-Shabab power station","sector":"electricity-generation","type":"gas, other_fossil","lon":31.9234,"lat":30.4653,"emissions":2529200.0},{"id":447822,"name":"Damietta power plant","sector":"electricity-generation","type":"gas, other_fossil","lon":31.7237,"lat":31.3811,"emissions":2487600.0},{"id":1896673,"name":"Arabian Cement Attaka Plant","sector":"cement","type":"integrated dry","lon":32.14794,"lat":29.79781,"emissions":2376325.2},{"id":450377,"name":"Cairo North power plant","sector":"electricity-generation","type":"gas, other_fossil","lon":31.2663,"lat":30.1082,"emissions":2369800.0},{"id":447834,"name":"Talkha power plant","sector":"electricity-generation","type":"gas, other_fossil","lon":31.3926,"lat":31.062,"emissions":2326100.0},{"id":53058755,"name":"Egypt_Nile Delta_Conventional shelf","sector":"oil-and-gas-production","type":"","lon":31.2332,"lat":31.6814,"emissions":2287964.2},{"id":53058754,"name":"Egypt_Nile Delta_Conventional onshore","sector":"oil-and-gas-production","type":"","lon":31.41725,"lat":31.17789,"emissions":2164710.6},{"id":1566795,"name":"Ezz Flat Steel Ain Sokhna plant","sector":"iron-and-steel","type":"DRI-EAF","lon":32.32337,"lat":29.69108,"emissions":2057231.4},{"id":1896676,"name":"Assiuit Cement Asyut Plant","sector":"cement","type":"integrated dry","lon":31.01503,"lat":27.17088,"emissions":2045053.4},{"id":1896688,"name":"Al Minya Desert Cement Plant","sector":"cement","type":"integrated dry","lon":30.85628,"lat":28.29704,"emissions":1995545.1},{"id":1566793,"name":"Egyptian Sponge Iron and Steel Company Sadat City plant","sector":"iron-and-steel","type":"DRI-EAF","lon":30.58902,"lat":30.39344,"emissions":1939320.7},{"id":447825,"name":"El-Tebeen power plant","sector":"electricity-generation","type":"gas, oil","lon":31.2982,"lat":29.7755,"emissions":1901800.0},{"id":25452744,"name":"Port Said East power plant","sector":"electricity-generation","type":"gas","lon":32.5202,"lat":31.0995,"emissions":1854600.0},{"id":25452743,"name":"Suez Gulf power plant","sector":"electricity-generation","type":"gas","lon":32.353,"lat":29.6189,"emissions":1854600.0},{"id":452590,"name":"West Assiut power station","sector":"electricity-generation","type":"oil, other_fossil","lon":31.0,"lat":27.1824,"emissions":1813400.0},{"id":25455046,"name":"Suez power plant","sector":"electricity-generation","type":"gas","lon":32.5036,"lat":29.9512,"emissions":1766000.0},{"id":32438370,"name":"Helwan Cement Plant","sector":"cement","type":"integrated semidry","lon":31.30881,"lat":29.82243,"emissions":1750387.0},{"id":25450617,"name":"Oyoun Mousa Gas power plant","sector":"electricity-generation","type":"gas","lon":32.5948,"lat":29.9115,"emissions":1738800.0},{"id":1566794,"name":"Al-Ezz Dekheila Steel Alexandria plant","sector":"iron-and-steel","type":"DRI-EAF","lon":29.80666,"lat":31.11972,"emissions":1687984.8},{"id":25450614,"name":"Abu Sultan power plant","sector":"electricity-generation","type":"gas","lon":32.3087,"lat":30.4027,"emissions":1630200.0},{"id":1753550,"name":"Cairo Oil Refining Company Mostorod Refinery","sector":"oil-and-gas-refining","type":"Deep Conversion","lon":31.29882,"lat":30.14276,"emissions":1489377.1},{"id":1896696,"name":"National Cement El Hassana Cement Plant","sector":"cement","type":"integrated dry","lon":33.85162,"lat":30.70236,"emissions":1398554.1},{"id":1566797,"name":"Suez Steel Solb Misr Attaka plant","sector":"iron-and-steel","type":"DRI-EAF","lon":32.46608,"lat":29.9231,"emissions":1357524.5},{"id":3143872,"name":"MIDOR Alexandria Refinery","sector":"oil-and-gas-refining","type":"Deep Conversion","lon":29.75966,"lat":31.02403,"emissions":1341404.3},{"id":3163400,"name":"El Maghara Coal Mine","sector":"coal-mining","type":"Underground","lon":33.38169,"lat":30.70673,"emissions":1292876.0},{"id":451055,"name":"El-Atf power plant","sector":"electricity-generation","type":"gas, other_fossil","lon":30.5291,"lat":31.1851,"emissions":1236000.0},{"id":447828,"name":"Mahmoudia power plant","sector":"electricity-generation","type":"gas, other_fossil","lon":30.5294,"lat":31.1747,"emissions":1218340.0},{"id":447827,"name":"Kafr El-Dawar power plant","sector":"electricity-generation","type":"gas","lon":30.1932,"lat":31.1293,"emissions":1195380.0},{"id":452057,"name":"Banha power plant","sector":"electricity-generation","type":"gas, other_fossil","lon":31.2234,"lat":30.4974,"emissions":1184890.0},{"id":1896681,"name":"Tura Cement Plant","sector":"cement","type":"integrated dry","lon":31.30329,"lat":29.92595,"emissions":1082564.6},{"id":447821,"name":"Damanhour power plant","sector":"electricity-generation","type":"gas, other_fossil, oil","lon":30.4292,"lat":31.0819,"emissions":1060230.0},{"id":53059598,"name":"Egypt_Nile Delta_Conventional shelf","sector":"oil-and-gas-transport","type":"","lon":31.2332,"lat":31.6814,"emissions":1050983.2},{"id":1896675,"name":"Sinai El Hassana Cement Plant","sector":"cement","type":"integrated dry","lon":33.77566,"lat":30.72781,"emissions":1050163.9},{"id":45257030,"name":"Alexandria Fertilizer Complex","sector":"chemicals","type":"ammonia","lon":30.09226,"lat":31.27236,"emissions":1046880.3},{"id":53059602,"name":"Egypt_Western Desert_Conventional onshore","sector":"oil-and-gas-transport","type":"","lon":28.02624,"lat":30.28662,"emissions":1001873.3},{"id":1896693,"name":"WNCC New Beni Suef Cement Plant","sector":"cement","type":"integrated dry","lon":31.28391,"lat":29.1275,"emissions":967597.7},{"id":45257105,"name":"Helwan Fertilizer Plant","sector":"chemicals","type":"ammonia","lon":31.30221,"lat":29.77587,"emissions":966440.6},{"id":1896690,"name":"South Valley Bani Suef Desert Cement Plant","sector":"cement","type":"integrated dry","lon":31.26877,"lat":29.12705,"emissions":884044.8},{"id":32438372,"name":"Suez Cement Attaka Plant","sector":"cement","type":"integrated dry","lon":32.21158,"lat":29.77183,"emissions":877461.1},{"id":45257033,"name":"Aswan Kima Fertilizer Complex","sector":"chemicals","type":"ammonia","lon":32.91619,"lat":24.06115,"emissions":847501.9},{"id":447830,"name":"Sharm El-Sheikh power plant","sector":"electricity-generation","type":"oil, gas","lon":34.2794,"lat":27.8933,"emissions":845740.0},{"id":25450627,"name":"Hurghada","sector":"electricity-generation","type":"oil, gas","lon":33.8177,"lat":27.1489,"emissions":844600.0},{"id":1825355,"name":"Alexandria Petroleum Company El Mex Refinery","sector":"oil-and-gas-refining","type":"Medium Conversion","lon":29.84433,"lat":31.14278,"emissions":825179.4},{"id":1896684,"name":"MBCC New Bani Suef Cement Plant","sector":"cement","type":"integrated dry","lon":31.07917,"lat":28.9235,"emissions":821762.2},{"id":42547266,"name":"Juhayna West Cement Plant","sector":"cement","type":"integrated dry","lon":31.32119,"lat":26.65769,"emissions":724250.9},{"id":1896694,"name":"El Sewedy Cement Attaka Plant","sector":"cement","type":"integrated dry","lon":32.21266,"lat":29.74765,"emissions":713960.3},{"id":3673054,"name":"Nag Hammadi aluminium plant","sector":"aluminum","type":"Smelting","lon":32.33131,"lat":25.99082,"emissions":708087.5},{"id":25450624,"name":"Arish power station","sector":"electricity-generation","type":"oil, gas","lon":33.6833,"lat":31.1156,"emissions":695590.0},{"id":53059597,"name":"Egypt_Nile Delta_Conventional onshore","sector":"oil-and-gas-transport","type":"","lon":31.41725,"lat":31.17789,"emissions":693934.6},{"id":33999114,"name":"EGY-'Ataqah_methanol","sector":"chemicals","type":"methanol","lon":32.22718,"lat":29.51527,"emissions":687802.7},{"id":45257154,"name":"Nitrogenous Fertilizer Complex","sector":"chemicals","type":"ammonia","lon":32.46728,"lat":29.94631,"emissions":655580.6},{"id":1753554,"name":"Nasr Petroleum Company El Nasr Refinery","sector":"oil-and-gas-refining","type":"Hydroskimming","lon":32.52024,"lat":29.95863,"emissions":638551.4},{"id":1566792,"name":"Egyptian American Steel Rolling Company Sadat City plant","sector":"iron-and-steel","type":"EAF","lon":30.57035,"lat":30.38603,"emissions":632994.3},{"id":1753557,"name":"Suez Oil Processing Company El Suez Refinery","sector":"oil-and-gas-refining","type":"Deep Conversion","lon":32.52965,"lat":29.96064,"emissions":629053.7},{"id":53059595,"name":"Egypt_Gulf of Suez_Conventional shelf","sector":"oil-and-gas-transport","type":"","lon":33.38582,"lat":28.21044,"emissions":580705.9},{"id":1825356,"name":"Ameriya Petroleum Refining Company Ameriya Refinery","sector":"oil-and-gas-refining","type":"Medium Conversion","lon":29.86588,"lat":31.09693,"emissions":564225.2}]}