{"iso_code":"ERI","generated_at":"2026-06-02T15:37:37-03:00","gas":"co2e_100yr","sectors":["power","fossil-fuel-operations","manufacturing","mineral-extraction"],"assets":[{"id":25455113,"name":"Hirgigo power plant","sector":"electricity-generation","type":"oil","lon":39.4426,"lat":15.5789,"emissions":226590.0},{"id":1896697,"name":"Habrenta Cement Plant","sector":"cement","type":"integrated dry","lon":39.57506,"lat":15.51267,"emissions":129826.4},{"id":25450895,"name":"Beleza","sector":"electricity-generation","type":"oil","lon":38.9221,"lat":15.4211,"emissions":47377.0},{"id":45944876,"name":"Bisha Mine","sector":"copper-mining","type":"copper-mine","lon":37.50296,"lat":15.51293,"emissions":45539.0},{"id":1896698,"name":"Massawa Cement Plant","sector":"cement","type":"integrated dry","lon":39.4736,"lat":15.6416,"emissions":16692.0}]}