{"iso_code":"ESP","generated_at":"2026-06-02T15:37:37-03:00","gas":"co2e_100yr","sectors":["power","fossil-fuel-operations","manufacturing","mineral-extraction"],"assets":[{"id":1566806,"name":"ArcelorMittal Asturias (Aviles) steel plant","sector":"iron-and-steel","type":"BOF","lon":-5.86135,"lat":43.54949,"emissions":3891499.5},{"id":3144116,"name":"Repsol Bilbao Refinery","sector":"oil-and-gas-refining","type":"Deep Conversion","lon":-3.10661,"lat":43.32586,"emissions":2566755.7},{"id":3144122,"name":"Repsol Cartagena Refinery","sector":"oil-and-gas-refining","type":"Deep Conversion","lon":-0.91859,"lat":37.57214,"emissions":2566755.7},{"id":3144121,"name":"CEPSA La Rabida Refinery","sector":"oil-and-gas-refining","type":"Deep Conversion","lon":-6.90394,"lat":37.18408,"emissions":2216743.6},{"id":1753783,"name":"CEPSA Gibraltar-San Roque Refinery","sector":"oil-and-gas-refining","type":"Medium Conversion","lon":-5.39725,"lat":36.18569,"emissions":2211146.2},{"id":3144117,"name":"Repsol Tarragona Refinery","sector":"oil-and-gas-refining","type":"Deep Conversion","lon":1.22203,"lat":41.17363,"emissions":2170075.3},{"id":43765130,"name":"San Ciprian alumina refinery","sector":"aluminum","type":"Refinery","lon":-7.45774,"lat":43.69697,"emissions":1860212.9},{"id":1566799,"name":"ArcelorMittal Asturias (Gijón) steel plant","sector":"iron-and-steel","type":"BF/BOF","lon":-5.73559,"lat":43.5216,"emissions":1822037.9},{"id":38481043,"name":"Nanta, S.A.U. Las Palas","sector":"food-beverage-tobacco","type":"Animal And Vegetable Products From The Food And Beverage Sector","lon":-1.14,"lat":37.73,"emissions":1761932.9},{"id":3144118,"name":"Repsol Puertollano Refinery","sector":"oil-and-gas-refining","type":"Deep Conversion","lon":-4.0571,"lat":38.67554,"emissions":1750060.7},{"id":449502,"name":"Besós 5 power station","sector":"electricity-generation","type":"gas, oil, other_fossil","lon":2.2286,"lat":41.4185,"emissions":1680770.0},{"id":3144119,"name":"Repsol A Coruna Refinery","sector":"oil-and-gas-refining","type":"Deep Conversion","lon":-8.44248,"lat":43.35093,"emissions":1400048.6},{"id":3144120,"name":"BP Castellon Refinery","sector":"oil-and-gas-refining","type":"Deep Conversion","lon":-0.00267,"lat":39.95261,"emissions":1283377.9},{"id":38480998,"name":"Uve, S.A. (Fab. Piensos)","sector":"food-beverage-tobacco","type":"Animal And Vegetable Products From The Food And Beverage Sector","lon":-4.69861,"lat":41.63,"emissions":1121932.9},{"id":32438394,"name":"El Alto Cement Plant","sector":"cement","type":"integrated dry","lon":-3.47416,"lat":40.24545,"emissions":1036498.4},{"id":32438413,"name":"Villaluenga de la Sagra Cement Plant","sector":"cement","type":"integrated dry","lon":-0.24756,"lat":39.66399,"emissions":933829.0},{"id":18648372,"name":"Dow Chemical Co. , Tarragona ","sector":"petrochemical-steam-cracking","type":"Flex Standalone","lon":1.23196,"lat":41.17632,"emissions":880869.9},{"id":18648374,"name":"Repsol SA , Tarragona","sector":"petrochemical-steam-cracking","type":"Flex Integrated","lon":1.22688,"lat":41.17219,"emissions":880222.6},{"id":32438403,"name":"Aboño Cement Plant","sector":"cement","type":"integrated dry","lon":-5.72258,"lat":43.56043,"emissions":864305.0},{"id":449602,"name":"Granadilla power station","sector":"electricity-generation","type":"oil, coal, other_fossil","lon":-16.4934,"lat":28.0848,"emissions":853680.0},{"id":25452752,"name":"Cartagena (Escombreras) power station","sector":"electricity-generation","type":"gas","lon":-0.9384,"lat":37.5727,"emissions":833390.0},{"id":449890,"name":"Bahía de Bizkaia power station","sector":"electricity-generation","type":"gas, other_fossil","lon":-3.0921,"lat":43.359,"emissions":800830.0},{"id":25452302,"name":"Soto de Ribera power station","sector":"electricity-generation","type":"gas, coal","lon":-5.874,"lat":43.3117,"emissions":794010.0},{"id":25451019,"name":"Aboño power station","sector":"electricity-generation","type":"coal","lon":-5.7219,"lat":43.5536,"emissions":784120.0},{"id":25453186,"name":"Plana del Vent power station","sector":"electricity-generation","type":"gas","lon":0.8692,"lat":40.9596,"emissions":782460.0},{"id":447988,"name":"As Pontes power station","sector":"electricity-generation","type":"coal, gas, other_fossil","lon":-7.863,"lat":43.441,"emissions":779310.0},{"id":1896716,"name":"Alcanar Cement Plant","sector":"cement","type":"integrated dry","lon":0.54275,"lat":40.57683,"emissions":753349.0},{"id":32438412,"name":"Sagunto Cement Plant","sector":"cement","type":"integrated dry","lon":2.18355,"lat":41.4745,"emissions":677033.2},{"id":25453063,"name":"Sagunto power station","sector":"electricity-generation","type":"gas","lon":-0.2332,"lat":39.6425,"emissions":662600.0},{"id":38467392,"name":"Dolomias De Aragon, S.L.","sector":"lime","type":"Lime Production In Rotary Kilns","lon":-1.56847,"lat":41.47904,"emissions":641451.5},{"id":447668,"name":"Bahia de Algeciras power station","sector":"electricity-generation","type":"gas, other_fossil, coal","lon":-5.3905,"lat":36.1829,"emissions":640945.0},{"id":450244,"name":"Amorebieta power station","sector":"electricity-generation","type":"gas, other_fossil","lon":-2.7497,"lat":43.2347,"emissions":632900.0},{"id":25455678,"name":"Alcúdia power station","sector":"electricity-generation","type":"coal, oil","lon":3.0914,"lat":39.8107,"emissions":632780.0},{"id":449608,"name":"Barranco de Tirajana power station","sector":"electricity-generation","type":"oil, other_fossil","lon":-15.4379,"lat":27.8042,"emissions":608280.0},{"id":1896717,"name":"Castillejo Cement Plant","sector":"cement","type":"integrated dry","lon":-3.74366,"lat":39.93427,"emissions":601237.4},{"id":449894,"name":"Arcos de la Frontera power station","sector":"electricity-generation","type":"other_fossil, gas","lon":-5.8164,"lat":36.6721,"emissions":589550.0},{"id":38467725,"name":"Tudela Veguin - Fábrica De Cales Y Cementos De Tudela Veguín","sector":"lime","type":"Lime Production In Rotary Kilns","lon":-5.77337,"lat":43.3309,"emissions":582560.2},{"id":448272,"name":"Castellón power station","sector":"electricity-generation","type":"oil, gas, other_fossil","lon":-0.001,"lat":39.9592,"emissions":557610.0},{"id":38481035,"name":"Productos Florida","sector":"food-beverage-tobacco","type":"Animal And Vegetable Products From The Food And Beverage Sector","lon":-0.14326,"lat":39.96533,"emissions":531932.9},{"id":449499,"name":"Aceca 3 power station","sector":"electricity-generation","type":"gas, oil","lon":-3.8553,"lat":39.9434,"emissions":530540.0},{"id":25452660,"name":"Castejón power station","sector":"electricity-generation","type":"gas","lon":-1.6773,"lat":42.1718,"emissions":521297.0},{"id":42546253,"name":"Monjos Cement Plant","sector":"cement","type":"integrated dry","lon":1.73007,"lat":41.31591,"emissions":516929.6},{"id":447986,"name":"Escatrón 3 power station","sector":"electricity-generation","type":"gas, other_fossil, coal","lon":-0.3365,"lat":41.2973,"emissions":513673.0},{"id":1896699,"name":"Alconera Cement Plant","sector":"cement","type":"integrated dry","lon":-6.48409,"lat":38.3789,"emissions":475332.0},{"id":25453126,"name":"San Roque 1 power station","sector":"electricity-generation","type":"gas","lon":-5.4136,"lat":36.1956,"emissions":472230.0},{"id":42546247,"name":"Sant Vicent dels Horts Cement Plant","sector":"cement","type":"integrated dry","lon":1.99566,"lat":41.40663,"emissions":454763.4},{"id":448273,"name":"Escombreras Iberdrola power station","sector":"electricity-generation","type":"other_fossil, gas, oil","lon":-0.9513,"lat":37.5647,"emissions":426925.9},{"id":32438397,"name":"Alcala Cement Plant","sector":"cement","type":"integrated dry","lon":-5.86499,"lat":37.35972,"emissions":416415.5},{"id":3673167,"name":"ALUMINIO ESPAÑOL, SA","sector":"other-metals","type":"Non-ferrous crude metal production","lon":-7.47375,"lat":43.69597,"emissions":403000.0},{"id":450743,"name":"Ca's Tresorer power station","sector":"electricity-generation","type":"gas, other_fossil","lon":2.6895,"lat":39.5672,"emissions":401790.0},{"id":450042,"name":"Son Reus power station","sector":"electricity-generation","type":"gas, other_fossil","lon":2.6808,"lat":39.6483,"emissions":390890.0},{"id":32438404,"name":"La Robla Cement Plant","sector":"cement","type":"integrated dry","lon":-5.61848,"lat":42.79872,"emissions":387216.8},{"id":25453062,"name":"Palos power station","sector":"electricity-generation","type":"gas","lon":-6.8842,"lat":37.1843,"emissions":380331.0},{"id":3673161,"name":"ALCOA TRANSFORMACION DE PRODUCTOS, S.L. (ALCOA TRANSFORMACIÓN DE PRODUCTOS, S.L.)","sector":"other-metals","type":"Non-ferrous metal smelting and alloying","lon":-2.71161,"lat":43.20891,"emissions":368000.0},{"id":25453185,"name":"Arrubal power station","sector":"electricity-generation","type":"gas","lon":-2.2511,"lat":42.4194,"emissions":353050.0},{"id":1896714,"name":"Morata Cement Plant","sector":"cement","type":"integrated dry","lon":-1.48622,"lat":41.47481,"emissions":347943.8},{"id":45257235,"name":"Sagunto Catalina Project","sector":"chemicals","type":"ammonia","lon":-0.2242,"lat":39.64769,"emissions":346500.0},{"id":45257169,"name":"Puertollano Fertilizers","sector":"chemicals","type":"ammonia","lon":-4.05845,"lat":38.66396,"emissions":346500.0},{"id":32438400,"name":"Alicante Cement Plant","sector":"cement","type":"integrated dry","lon":-0.54323,"lat":38.37736,"emissions":344009.4},{"id":32438409,"name":"Carboneras Cement Plant","sector":"cement","type":"integrated dry","lon":-1.90591,"lat":36.96786,"emissions":337057.0},{"id":25453277,"name":"Puerto De Barcelona power station","sector":"electricity-generation","type":"gas","lon":2.1594,"lat":41.3366,"emissions":335419.0},{"id":1566800,"name":"ArcelorMittal Sestao steel plant","sector":"iron-and-steel","type":"EAF","lon":-2.99936,"lat":43.31337,"emissions":315451.6},{"id":32438396,"name":"Hontoria Cement Plant","sector":"cement","type":"integrated dry","lon":-4.46577,"lat":41.94132,"emissions":301523.8},{"id":32438393,"name":"Mataporquera Cement Plant","sector":"cement","type":"integrated dry","lon":-4.159,"lat":42.87425,"emissions":293788.8},{"id":32438406,"name":"Arrigorriaga Cement Plant","sector":"cement","type":"integrated dry","lon":-2.90014,"lat":43.20499,"emissions":291875.9},{"id":1896732,"name":"Montcada i Reixac Cement Plant","sector":"cement","type":"integrated dry","lon":-3.89866,"lat":40.00678,"emissions":290692.9},{"id":25452791,"name":"Campo de Gibraltar power station","sector":"electricity-generation","type":"gas","lon":-5.3933,"lat":36.1834,"emissions":284035.0},{"id":38481033,"name":"Corsa Petfood (Cardona)","sector":"food-beverage-tobacco","type":"Animal And Vegetable Products From The Food And Beverage Sector","lon":1.71365,"lat":41.90024,"emissions":283506.1},{"id":448163,"name":"Vila Ibiza power station","sector":"electricity-generation","type":"oil, gas","lon":1.43,"lat":38.9189,"emissions":274780.0},{"id":449612,"name":"Sabón 3 power station","sector":"electricity-generation","type":"gas, oil","lon":-8.503,"lat":43.329,"emissions":268361.0},{"id":32438417,"name":"Toral de los Vados Cement Plant","sector":"cement","type":"integrated dry","lon":-6.7683,"lat":42.55432,"emissions":244640.6},{"id":25453512,"name":"Escatron Peaker A.I.E. power station","sector":"electricity-generation","type":"gas, other_fossil","lon":-0.2176,"lat":41.2809,"emissions":243200.0},{"id":32438398,"name":"Bunol Cement Plant","sector":"cement","type":"integrated dry","lon":-0.77564,"lat":39.43697,"emissions":242868.5},{"id":449607,"name":"Punta Grande power station","sector":"electricity-generation","type":"oil","lon":-13.5167,"lat":28.9794,"emissions":239760.0},{"id":32438415,"name":"Niebla Cement Plant","sector":"cement","type":"integrated dry","lon":-6.67218,"lat":37.35934,"emissions":234768.5},{"id":32438395,"name":"Olazagutia Cement Plant","sector":"cement","type":"integrated dry","lon":-2.1902,"lat":42.88306,"emissions":231047.1},{"id":32438408,"name":"Añorga Cement Plant","sector":"cement","type":"integrated dry","lon":-1.9971,"lat":43.28562,"emissions":230143.3},{"id":25452698,"name":"El Fangal power station","sector":"electricity-generation","type":"gas","lon":-0.9458,"lat":37.5709,"emissions":222750.0},{"id":449601,"name":"Candelaria power plant","sector":"electricity-generation","type":"oil, gas","lon":-16.3575,"lat":28.3814,"emissions":220800.0},{"id":1896731,"name":"Jerez Cement Plant","sector":"cement","type":"integrated dry","lon":-6.07391,"lat":36.61843,"emissions":218313.4}]}