{"iso_code":"FRO","generated_at":"2026-06-02T14:20:02-03:00","gas":"co2e_100yr","sectors":["power","fossil-fuel-operations","manufacturing","mineral-extraction","transportation"],"assets":[{"id":1930643,"name":"Thorshavn","sector":"domestic-shipping","type":"","lon":-6.75916,"lat":62.00277,"emissions":167618.4},{"id":1930638,"name":"Klaksvik","sector":"domestic-shipping","type":"","lon":-6.58333,"lat":62.23329,"emissions":139397.4},{"id":2790917,"name":"Thorshavn","sector":"international-shipping","type":"","lon":-6.75916,"lat":62.00277,"emissions":109996.3},{"id":1930640,"name":"Kongshavn","sector":"domestic-shipping","type":"","lon":-6.72533,"lat":62.11495,"emissions":100814.5},{"id":1930636,"name":"Fuglafjordur","sector":"domestic-shipping","type":"","lon":-6.80471,"lat":62.24415,"emissions":92014.3},{"id":2790914,"name":"Kongshavn","sector":"international-shipping","type":"","lon":-6.72533,"lat":62.11495,"emissions":49857.4},{"id":2790910,"name":"Fuglafjordur","sector":"international-shipping","type":"","lon":-6.80471,"lat":62.24415,"emissions":47500.7},{"id":1930639,"name":"Kollafjordur","sector":"domestic-shipping","type":"","lon":-6.928,"lat":62.10199,"emissions":43088.5},{"id":1930644,"name":"Tvoroyri","sector":"domestic-shipping","type":"","lon":-6.80638,"lat":61.55124,"emissions":38206.8},{"id":1930642,"name":"Sorvagur","sector":"domestic-shipping","type":"","lon":-7.25,"lat":62.08329,"emissions":33498.7},{"id":2790912,"name":"Klaksvik","sector":"international-shipping","type":"","lon":-6.58333,"lat":62.23329,"emissions":32606.0},{"id":3631212,"name":"Tórshavn Commune","sector":"road-transportation","type":"","lon":-6.94167,"lat":62.05521,"emissions":32225.6},{"id":3166582,"name":"Vágar Airport","sector":"international-aviation","type":"international","lon":-7.27578,"lat":62.06326,"emissions":31436.4},{"id":1930646,"name":"Vestmanna","sector":"domestic-shipping","type":"","lon":-7.13785,"lat":62.16699,"emissions":26558.4},{"id":3631195,"name":"Runavík Commune","sector":"road-transportation","type":"","lon":-6.90039,"lat":62.20751,"emissions":10782.1},{"id":38887546,"name":"Unknown name","sector":"international-shipping","type":"","lon":-7.17,"lat":62.045,"emissions":9087.8},{"id":3631186,"name":"Eystur Commune","sector":"road-transportation","type":"","lon":-6.7572,"lat":62.20521,"emissions":7728.1},{"id":3631197,"name":"Sunda Commune","sector":"road-transportation","type":"","lon":-7.06331,"lat":62.22567,"emissions":7293.7},{"id":2790913,"name":"Kollafjordur","sector":"international-shipping","type":"","lon":-6.928,"lat":62.10199,"emissions":6859.7},{"id":2790918,"name":"Tvoroyri","sector":"international-shipping","type":"","lon":-6.80638,"lat":61.55124,"emissions":6812.9},{"id":1930645,"name":"Vagur","sector":"domestic-shipping","type":"","lon":-6.8,"lat":61.48329,"emissions":6480.1},{"id":3631201,"name":"Klaksvík Commune","sector":"road-transportation","type":"","lon":-6.53908,"lat":62.26141,"emissions":6198.8},{"id":3631196,"name":"Sjógv Commune","sector":"road-transportation","type":"","lon":-6.83484,"lat":62.14623,"emissions":5050.5},{"id":3631221,"name":"Tvøroyri Commune","sector":"road-transportation","type":"","lon":-6.84193,"lat":61.55938,"emissions":5006.7},{"id":1930637,"name":"Hosvik","sector":"domestic-shipping","type":"","lon":-6.982,"lat":62.18799,"emissions":4956.2},{"id":3631194,"name":"Nes Commune","sector":"road-transportation","type":"","lon":-6.71068,"lat":62.08646,"emissions":4427.4},{"id":3631210,"name":"Kvívík Commune","sector":"road-transportation","type":"","lon":-7.07336,"lat":62.11979,"emissions":4131.3},{"id":3631205,"name":"Sand Commune","sector":"road-transportation","type":"","lon":-6.84644,"lat":61.8625,"emissions":2876.9},{"id":3631225,"name":"Vágur Commune","sector":"road-transportation","type":"","lon":-7.16355,"lat":62.08933,"emissions":2832.4},{"id":3631224,"name":"Sørvágs Commune","sector":"road-transportation","type":"","lon":-7.30701,"lat":62.0825,"emissions":2595.9},{"id":3631217,"name":"Hvalba Commune","sector":"road-transportation","type":"","lon":-6.95043,"lat":61.60807,"emissions":2207.0},{"id":1930641,"name":"Soldarfjordur","sector":"domestic-shipping","type":"","lon":-6.75,"lat":62.15299,"emissions":2076.8},{"id":3631184,"name":"Eiði Commune","sector":"road-transportation","type":"","lon":-7.04206,"lat":62.28047,"emissions":1933.9},{"id":38903070,"name":"Unknown name","sector":"domestic-shipping","type":"","lon":-7.17,"lat":62.045,"emissions":1815.8},{"id":3631193,"name":"Fuglafjørður Commune","sector":"road-transportation","type":"","lon":-6.84203,"lat":62.24253,"emissions":1768.6},{"id":3631222,"name":"Vágur Commune","sector":"road-transportation","type":"","lon":-6.81261,"lat":61.47813,"emissions":1625.9},{"id":3631219,"name":"Porkeri Commune","sector":"road-transportation","type":"","lon":-6.77834,"lat":61.49271,"emissions":1466.9},{"id":3631202,"name":"Kunoy Commune","sector":"road-transportation","type":"","lon":-6.65686,"lat":62.30599,"emissions":1192.7},{"id":3631220,"name":"Sumba Commune","sector":"road-transportation","type":"","lon":-6.72813,"lat":61.42682,"emissions":970.6},{"id":3631200,"name":"Hvannasund Commune","sector":"road-transportation","type":"","lon":-6.51865,"lat":62.29867,"emissions":876.5},{"id":3631216,"name":"Hov Commune","sector":"road-transportation","type":"","lon":-6.79005,"lat":61.51875,"emissions":782.2},{"id":2792961,"name":"Vagur","sector":"international-shipping","type":"","lon":-6.8,"lat":61.48329,"emissions":767.1},{"id":3631199,"name":"Húsar Commune","sector":"road-transportation","type":"","lon":-6.70746,"lat":62.26771,"emissions":685.6},{"id":3631213,"name":"Vestmanna Commune","sector":"road-transportation","type":"","lon":-7.17772,"lat":62.19062,"emissions":679.5},{"id":3631203,"name":"Viðareiði Commune","sector":"road-transportation","type":"","lon":-6.52917,"lat":62.34349,"emissions":556.4},{"id":2790915,"name":"Soldarfjordur","sector":"international-shipping","type":"","lon":-6.75,"lat":62.15299,"emissions":537.7},{"id":2790919,"name":"Vestmanna","sector":"international-shipping","type":"","lon":-7.13785,"lat":62.16699,"emissions":501.1},{"id":2790911,"name":"Hosvik","sector":"international-shipping","type":"","lon":-6.982,"lat":62.18799,"emissions":438.1},{"id":45113689,"name":"Gamlaraett Ferry","sector":"domestic-shipping","type":"","lon":-6.819,"lat":61.962,"emissions":416.5},{"id":2790916,"name":"Sorvagur","sector":"international-shipping","type":"","lon":-7.25,"lat":62.08329,"emissions":415.8},{"id":3631204,"name":"Húsavík Commune","sector":"road-transportation","type":"","lon":-6.70174,"lat":61.79193,"emissions":328.8},{"id":3631214,"name":"Fámjin Commune","sector":"road-transportation","type":"","lon":-6.867,"lat":61.52782,"emissions":225.6},{"id":3631198,"name":"Fugloy Commune","sector":"road-transportation","type":"","lon":-6.29284,"lat":62.3362,"emissions":211.1},{"id":3631209,"name":"Skúvoy Commune","sector":"road-transportation","type":"","lon":-6.83064,"lat":61.76693,"emissions":181.6},{"id":3631206,"name":"Skálavík Commune","sector":"road-transportation","type":"","lon":-6.72252,"lat":61.84896,"emissions":177.3},{"id":3631207,"name":"Skopun Commune","sector":"road-transportation","type":"","lon":-6.91802,"lat":61.89974,"emissions":31.4},{"id":45122102,"name":"Gamlaraett Ferry","sector":"international-shipping","type":"","lon":-6.819,"lat":61.962,"emissions":8.2}]}