{"iso_code":"GAB","generated_at":"2026-06-02T15:37:41-03:00","gas":"co2e_100yr","sectors":["power","fossil-fuel-operations","manufacturing","mineral-extraction"],"assets":[{"id":53058776,"name":"Gabon_Gabon_Conventional onshore","sector":"oil-and-gas-production","type":"","lon":9.7531,"lat":-1.69518,"emissions":4967027.4},{"id":53058777,"name":"Gabon_Gabon_Conventional shelf","sector":"oil-and-gas-production","type":"","lon":8.88528,"lat":-1.32884,"emissions":3074631.7},{"id":53059619,"name":"Gabon_Gabon_Conventional onshore","sector":"oil-and-gas-transport","type":"","lon":9.7531,"lat":-1.69518,"emissions":473001.6},{"id":719238,"name":"Alenakiri power plant","sector":"electricity-generation","type":"gas","lon":9.521,"lat":0.3145,"emissions":358640.0},{"id":49531362,"name":"Cap Lopez power plant","sector":"electricity-generation","type":"gas","lon":8.7653,"lat":-0.7238,"emissions":358640.0},{"id":32438456,"name":"Nkan Cement Plant","sector":"cement","type":"integrated wet","lon":9.75084,"lat":0.37369,"emissions":274099.8},{"id":25452075,"name":"Owendo Gas-to-Power power plant","sector":"electricity-generation","type":"oil","lon":9.5056,"lat":0.3451,"emissions":262170.0},{"id":53059620,"name":"Gabon_Gabon_Conventional shelf","sector":"oil-and-gas-transport","type":"","lon":8.88528,"lat":-1.32884,"emissions":206461.9},{"id":1753567,"name":"SOGARA Port Gentil Refinery","sector":"oil-and-gas-refining","type":"Hydroskimming","lon":8.77609,"lat":-0.68148,"emissions":100694.0},{"id":53058778,"name":"Gabon_Gabon_Heavy oil","sector":"oil-and-gas-production","type":"","lon":8.92457,"lat":-1.34888,"emissions":86212.9},{"id":25452041,"name":"Rabi","sector":"electricity-generation","type":"gas","lon":9.4833,"lat":-1.9,"emissions":46352.0},{"id":49528020,"name":"Port Gentil power plant","sector":"electricity-generation","type":"oil","lon":8.7653,"lat":-0.7238,"emissions":39255.0},{"id":53059621,"name":"Gabon_Gabon_Heavy oil","sector":"oil-and-gas-transport","type":"","lon":8.92457,"lat":-1.34888,"emissions":3887.4}]}