{"iso_code":"GEO","generated_at":"2026-06-02T15:37:42-03:00","gas":"co2e_100yr","sectors":["power","fossil-fuel-operations","manufacturing","mineral-extraction"],"assets":[{"id":32438469,"name":"Kaspi Cement Plant","sector":"cement","type":"integrated dry","lon":44.4175,"lat":41.91794,"emissions":565968.8},{"id":452241,"name":"Gardabani Combined Cycle power station","sector":"electricity-generation","type":"gas, other_fossil","lon":45.0535,"lat":41.4602,"emissions":492370.0},{"id":25453088,"name":"Tbilsresi power station","sector":"electricity-generation","type":"gas","lon":45.0639,"lat":41.473,"emissions":435530.0},{"id":25453985,"name":"Airturbine power station","sector":"electricity-generation","type":"gas","lon":45.0686,"lat":41.4797,"emissions":252760.0},{"id":32438470,"name":"Rustavi Cement Plant","sector":"cement","type":"integrated dry","lon":45.04719,"lat":41.51446,"emissions":115055.4},{"id":42547297,"name":"Georgian Building Group Avjala Cement Plant","sector":"cement","type":"integrated dry","lon":44.79511,"lat":41.81162,"emissions":95872.4},{"id":15875,"name":"Mindeli Coal Mine","sector":"coal-mining","type":"Underground","lon":42.98856,"lat":42.33943,"emissions":71348.6},{"id":15874,"name":"Dzidziguri Coal Mine","sector":"coal-mining","type":"Underground","lon":42.98856,"lat":42.33943,"emissions":71348.6},{"id":53058780,"name":"Georgia_Kura - Kartli_Conventional onshore","sector":"oil-and-gas-production","type":"","lon":45.22804,"lat":41.66676,"emissions":27300.2},{"id":53059623,"name":"Georgia_Kura - Kartli_Conventional onshore","sector":"oil-and-gas-transport","type":"","lon":45.22804,"lat":41.66676,"emissions":2078.4},{"id":53058781,"name":"Georgia_Rioni_Conventional onshore","sector":"oil-and-gas-production","type":"","lon":41.82836,"lat":42.02862,"emissions":1079.8},{"id":53059624,"name":"Georgia_Rioni_Conventional onshore","sector":"oil-and-gas-transport","type":"","lon":41.82836,"lat":42.02862,"emissions":290.4},{"id":38473914,"name":"Ajara Textile Ltd.","sector":"textiles-leather-apparel","type":"Final Product Assembly","lon":41.76454,"lat":41.79287,"emissions":286.2},{"id":38479887,"name":"Kartli Textile Ltd","sector":"textiles-leather-apparel","type":"Finished Goods","lon":44.76995,"lat":41.73737,"emissions":286.2},{"id":38478649,"name":"Ajara Textile","sector":"textiles-leather-apparel","type":"Finished Goods","lon":41.66472,"lat":42.1739,"emissions":286.2},{"id":38478648,"name":"Ajara Textile","sector":"textiles-leather-apparel","type":"Final Product Assembly","lon":41.64049,"lat":41.6461,"emissions":286.2},{"id":38478610,"name":"Adexa Georgia Llc","sector":"textiles-leather-apparel","type":"Final Product Assembly","lon":41.68713,"lat":41.66317,"emissions":286.2},{"id":38477774,"name":"Milteks Tekstil Sanayi Ve Ticaret A.S. (Ajara Textile Ltd)","sector":"textiles-leather-apparel","type":"Finished Goods","lon":42.15439,"lat":41.56865,"emissions":286.2}]}