{"iso_code":"GIN","generated_at":"2026-06-02T15:37:44-03:00","gas":"co2e_100yr","sectors":["power","fossil-fuel-operations","manufacturing","mineral-extraction"],"assets":[{"id":43764989,"name":"Friguia Bauxite Mine & Alumina Refinery","sector":"aluminum","type":"Refinery","lon":-13.5786,"lat":10.38869,"emissions":1577749.2},{"id":3673066,"name":"Boké Prefecture","sector":"aluminum","type":"Refinery","lon":-14.45361,"lat":11.00694,"emissions":1160546.3},{"id":42233086,"name":"Dabiss Mine","sector":"bauxite-mining","type":"bauxite-mine","lon":-14.42417,"lat":11.21864,"emissions":653106.0},{"id":42547506,"name":"Sangaredi Mine","sector":"bauxite-mining","type":"bauxite-mine","lon":-13.77482,"lat":11.09026,"emissions":321585.0},{"id":3673065,"name":"Fria Prefecture","sector":"aluminum","type":"Refinery","lon":-13.59176,"lat":10.50922,"emissions":215530.0},{"id":42546320,"name":"Diamond Conarky Cement Plant","sector":"cement","type":"integrated dry","lon":-13.48847,"lat":9.72644,"emissions":212739.7},{"id":42233091,"name":"Ganganta Mine","sector":"bauxite-mining","type":"bauxite-mine","lon":-13.86976,"lat":10.22208,"emissions":137996.1},{"id":42233081,"name":"Binton Mine","sector":"bauxite-mining","type":"bauxite-mine","lon":-13.76968,"lat":10.39403,"emissions":137996.1},{"id":42233082,"name":"Boffa (Ashapura) Mine","sector":"bauxite-mining","type":"bauxite-mine","lon":-13.67849,"lat":10.22881,"emissions":137996.1},{"id":42233085,"name":"Boke (GDM) Mine","sector":"bauxite-mining","type":"bauxite-mine","lon":-14.15571,"lat":10.81545,"emissions":137996.1},{"id":42233088,"name":"Fako Mine","sector":"bauxite-mining","type":"bauxite-mine","lon":-13.73772,"lat":10.92657,"emissions":137996.1},{"id":42233089,"name":"Filibawai Mine","sector":"bauxite-mining","type":"bauxite-mine","lon":-13.98791,"lat":10.79202,"emissions":137996.1},{"id":42233092,"name":"Garafiri Mine","sector":"bauxite-mining","type":"bauxite-mine","lon":-12.61025,"lat":10.44714,"emissions":137996.1},{"id":42547502,"name":"Kalema Mine","sector":"bauxite-mining","type":"bauxite-mine","lon":-13.78831,"lat":10.26891,"emissions":137996.1},{"id":42547505,"name":"Mouraya Mine","sector":"bauxite-mining","type":"bauxite-mine","lon":-13.80695,"lat":10.32809,"emissions":137996.1},{"id":42547507,"name":"Santou-Houda Mine","sector":"bauxite-mining","type":"bauxite-mine","lon":-13.68136,"lat":11.0081,"emissions":137996.1},{"id":42547509,"name":"Woenkhori Mine","sector":"bauxite-mining","type":"bauxite-mine","lon":-13.75277,"lat":10.30822,"emissions":137996.1},{"id":42547504,"name":"Malapouya Mine","sector":"bauxite-mining","type":"bauxite-mine","lon":-14.23017,"lat":10.85007,"emissions":133606.0},{"id":25450527,"name":"Kamsar","sector":"electricity-generation","type":"oil","lon":-14.6,"lat":10.6667,"emissions":114995.0},{"id":719833,"name":"Kipé power plant","sector":"electricity-generation","type":"oil","lon":-13.6367,"lat":9.6025,"emissions":99901.0},{"id":42233084,"name":"Boke (AMR) Mine","sector":"bauxite-mining","type":"bauxite-mine","lon":-14.20073,"lat":10.90862,"emissions":93345.0},{"id":719566,"name":"Tè-Power power plant","sector":"electricity-generation","type":"oil","lon":-13.6618,"lat":9.5702,"emissions":92499.0},{"id":42547501,"name":"Kaboe Mine","sector":"bauxite-mining","type":"bauxite-mine","lon":-14.32276,"lat":11.00231,"emissions":82288.0},{"id":42547508,"name":"Tinguilinta Mine","sector":"bauxite-mining","type":"bauxite-mine","lon":-14.1159,"lat":11.03418,"emissions":72925.0},{"id":42233087,"name":"Dian-Dian Mine","sector":"bauxite-mining","type":"bauxite-mine","lon":-13.90101,"lat":11.08933,"emissions":69678.0},{"id":42547503,"name":"Kindia Mine","sector":"bauxite-mining","type":"bauxite-mine","lon":-13.12795,"lat":9.88545,"emissions":44335.0},{"id":42233083,"name":"Boffa (Chalco) Mine","sector":"bauxite-mining","type":"bauxite-mine","lon":-13.88956,"lat":10.33965,"emissions":33489.0},{"id":42233080,"name":"Bel Air Mine","sector":"bauxite-mining","type":"bauxite-mine","lon":-14.34856,"lat":10.36999,"emissions":25556.0},{"id":42233090,"name":"Friguia Mine","sector":"bauxite-mining","type":"bauxite-mine","lon":-13.60338,"lat":10.42808,"emissions":15611.0},{"id":42299914,"name":"Sangaredi","sector":"electricity-generation","type":"oil","lon":-13.79,"lat":11.097,"emissions":13322.0}]}