{"iso_code":"GRC","generated_at":"2026-06-02T15:37:46-03:00","gas":"co2e_100yr","sectors":["power","fossil-fuel-operations","manufacturing","mineral-extraction"],"assets":[{"id":451083,"name":"Agios Nikolaos power station","sector":"electricity-generation","type":"gas, other_fossil","lon":22.6897,"lat":38.3576,"emissions":2822700.0},{"id":448950,"name":"Megalopoli power station","sector":"electricity-generation","type":"coal, gas, other_fossil","lon":22.1079,"lat":37.4174,"emissions":2487400.0},{"id":3143909,"name":"Motor Oil Hellas Corinth Refinery","sector":"oil-and-gas-refining","type":"Deep Conversion","lon":23.0752,"lat":37.9185,"emissions":2450024.7},{"id":25451741,"name":"Agios Dimitrios power station","sector":"electricity-generation","type":"coal","lon":21.9249,"lat":40.3942,"emissions":2318800.0},{"id":32438474,"name":"Agria Cement Plant","sector":"cement","type":"integrated dry","lon":22.9866,"lat":39.35378,"emissions":1622464.0},{"id":3143907,"name":"Hellenic Petroleum Aspropyrgos Refinery","sector":"oil-and-gas-refining","type":"Medium Conversion","lon":23.604,"lat":38.0329,"emissions":1528776.0},{"id":448947,"name":"Lavrio power station","sector":"electricity-generation","type":"gas, oil, other_fossil","lon":24.0666,"lat":37.7463,"emissions":1301760.0},{"id":712424,"name":"Hellenic Petroleum Elefsina Refinery","sector":"oil-and-gas-refining","type":"Medium Conversion","lon":23.50778,"lat":38.04497,"emissions":1094934.2},{"id":1896841,"name":"Aliveri Cement Plant","sector":"cement","type":"integrated dry","lon":24.06239,"lat":38.37478,"emissions":990660.9},{"id":450481,"name":"Thessaloniki power station","sector":"electricity-generation","type":"gas, other_fossil","lon":22.884,"lat":40.6879,"emissions":893050.0},{"id":4405054,"name":"Thiva Heron power station","sector":"electricity-generation","type":"gas","lon":23.3305,"lat":38.2795,"emissions":741870.0},{"id":1896843,"name":"Pio Cement Plant","sector":"cement","type":"integrated dry","lon":21.84804,"lat":38.33458,"emissions":741582.3},{"id":451088,"name":"Thisvi Elpedison power station","sector":"electricity-generation","type":"gas, other_fossil","lon":22.949,"lat":38.2369,"emissions":717950.0},{"id":448941,"name":"Aliveri power station","sector":"electricity-generation","type":"gas, oil","lon":24.0524,"lat":38.3896,"emissions":642480.0},{"id":711712,"name":"West Macedonia Lignite Centre","sector":"coal-mining","type":"Surface","lon":21.7835,"lat":40.44822,"emissions":625287.7},{"id":25454228,"name":"Korinthos power station","sector":"electricity-generation","type":"gas","lon":23.0687,"lat":37.9236,"emissions":604840.0},{"id":1896844,"name":"Efkarpia Cement Plant","sector":"cement","type":"integrated dry","lon":22.953,"lat":40.69856,"emissions":563868.9},{"id":3143910,"name":"Hellenic Petroleum Thessaloniki Refinery","sector":"oil-and-gas-refining","type":"Hydroskimming","lon":22.88154,"lat":40.68008,"emissions":562937.0},{"id":32438477,"name":"Magoula Cement Plant","sector":"cement","type":"integrated dry","lon":23.5223,"lat":38.12967,"emissions":533321.8},{"id":25451746,"name":"Florina (Meliti) Power Station","sector":"electricity-generation","type":"coal","lon":21.6027,"lat":40.8123,"emissions":505560.0},{"id":3673067,"name":"St. Nicolas aluminium plant","sector":"aluminum","type":"Smelting","lon":22.68981,"lat":38.36221,"emissions":410920.8},{"id":448940,"name":"Agios Georgiou","sector":"electricity-generation","type":"gas, oil, coal","lon":23.6104,"lat":37.9539,"emissions":405090.0},{"id":448943,"name":"Chania power station","sector":"electricity-generation","type":"oil, other_fossil","lon":24.0388,"lat":35.4888,"emissions":392910.0},{"id":448946,"name":"Komotini power station","sector":"electricity-generation","type":"gas, other_fossil","lon":25.4899,"lat":41.0646,"emissions":387066.0},{"id":448949,"name":"Linoperamata power station","sector":"electricity-generation","type":"oil","lon":25.0511,"lat":35.3408,"emissions":386650.0},{"id":32438472,"name":"Apropyrgos Cement Plant","sector":"cement","type":"integrated dry","lon":23.5936,"lat":38.03397,"emissions":293439.5},{"id":448951,"name":"South Rhodes power station","sector":"electricity-generation","type":"oil","lon":28.0184,"lat":36.3782,"emissions":267680.0},{"id":38480556,"name":"Athenian  Brewery  S.A. (Thessaloniki Brewery)","sector":"food-beverage-tobacco","type":"Animal And Vegetable Products From The Food And Beverage Sector","lon":22.81595,"lat":40.67972,"emissions":212011.0},{"id":38480557,"name":"Pepsico -Ivi S.A","sector":"food-beverage-tobacco","type":"Animal And Vegetable Products From The Food And Beverage Sector","lon":23.65,"lat":38.31528,"emissions":212011.0},{"id":38480555,"name":"Athenian  Brewery  S.A. (Patras Brewery)","sector":"food-beverage-tobacco","type":"Animal And Vegetable Products From The Food And Beverage Sector","lon":21.63416,"lat":38.11077,"emissions":212011.0},{"id":25453210,"name":"Atherinolakkos power station","sector":"electricity-generation","type":"oil","lon":26.1385,"lat":35.0027,"emissions":200410.0},{"id":25453487,"name":"Heron I","sector":"electricity-generation","type":"gas","lon":23.3264,"lat":38.2801,"emissions":189630.0},{"id":710319,"name":"Megalopolis Lignite Center","sector":"coal-mining","type":"Surface","lon":22.09781,"lat":37.42755,"emissions":176363.2},{"id":45257150,"name":"Nea Karvali Fertilizers","sector":"chemicals","type":"ammonia","lon":24.50479,"lat":40.95289,"emissions":146520.0},{"id":25453685,"name":"South Rhodes power station","sector":"electricity-generation","type":"oil","lon":27.7781,"lat":35.9176,"emissions":121009.0},{"id":3673274,"name":"ELVALHALCOR S.A. - ALUMINIUM ROLLING DIVISION","sector":"other-metals","type":"Non-ferrous metal smelting and alloying","lon":23.62417,"lat":38.31638,"emissions":114000.0},{"id":448626,"name":"Corinth Refinery power station","sector":"electricity-generation","type":"gas","lon":23.0752,"lat":37.9174,"emissions":107599.0},{"id":2894,"name":"LESBOS","sector":"electricity-generation","type":"oil","lon":26.5481,"lat":39.1185,"emissions":96147.0},{"id":45944880,"name":"Skouries Mine","sector":"copper-mining","type":"copper-mine","lon":23.70055,"lat":40.48179,"emissions":81887.8},{"id":448205,"name":"Aspropyrgos Refinery power station","sector":"electricity-generation","type":"gas, other_fossil, oil","lon":23.6036,"lat":38.0346,"emissions":75490.0},{"id":3163416,"name":"Achlada Coal Mine","sector":"coal-mining","type":"Surface","lon":21.5996,"lat":40.8604,"emissions":66380.6},{"id":53058790,"name":"Greece_Northern Aegean_Conventional shelf","sector":"oil-and-gas-production","type":"","lon":24.47545,"lat":40.79121,"emissions":51087.2},{"id":1566830,"name":"Sovel Almyros steel plant","sector":"iron-and-steel","type":"EAF","lon":22.84076,"lat":39.16988,"emissions":50627.4},{"id":25452971,"name":"Ano Liosia","sector":"electricity-generation","type":"gas","lon":23.6557,"lat":38.069,"emissions":39401.0},{"id":1566831,"name":"Sidenor Steel Industry Thessaloniki plant","sector":"iron-and-steel","type":"EAF","lon":22.81659,"lat":40.70473,"emissions":30001.4},{"id":1567247,"name":"Hellenic Halyvourgia Velestino steel plant","sector":"iron-and-steel","type":"EAF","lon":22.80878,"lat":39.38687,"emissions":26251.2},{"id":38469151,"name":"Ba Glass Greece S.A.","sector":"glass","type":"Glass Manufacturing","lon":23.67028,"lat":37.9825,"emissions":25336.7},{"id":710709,"name":"Prosilio Coal Mine","sector":"coal-mining","type":"Underground & Surface","lon":21.93114,"lat":40.13618,"emissions":17701.5},{"id":3673068,"name":"Central Greece Region","sector":"aluminum","type":"Refinery","lon":23.2484,"lat":38.6238,"emissions":12315.3},{"id":38472693,"name":"Karalis New Look Fashion S.A.","sector":"textiles-leather-apparel","type":"Final Product Assembly","lon":22.92786,"lat":40.64634,"emissions":3615.5},{"id":38470373,"name":"Maitex","sector":"textiles-leather-apparel","type":"Printing | Product Dyeing And Laundering","lon":24.85603,"lat":41.09591,"emissions":3615.5},{"id":38470571,"name":"Alexandros","sector":"textiles-leather-apparel","type":"Printing | Product Dyeing And Laundering","lon":22.92844,"lat":40.70011,"emissions":3615.5},{"id":38470819,"name":"A-Print","sector":"textiles-leather-apparel","type":"Printing | Product Dyeing And Laundering","lon":22.93646,"lat":40.67961,"emissions":3615.5},{"id":38470923,"name":"Cloth Art","sector":"textiles-leather-apparel","type":"Printing | Product Dyeing And Laundering","lon":22.9828,"lat":40.61355,"emissions":3615.5},{"id":38471182,"name":"Karagkiozi Eleni K Sia Ee","sector":"textiles-leather-apparel","type":"Printing | Product Dyeing And Laundering","lon":22.93396,"lat":40.64336,"emissions":3615.5},{"id":38471632,"name":"Vie Bon","sector":"textiles-leather-apparel","type":"Printing | Product Dyeing And Laundering","lon":22.80152,"lat":40.67172,"emissions":3615.5},{"id":38476756,"name":"Pervenis Alexandros","sector":"textiles-leather-apparel","type":"Final Product Assembly","lon":22.98313,"lat":40.61208,"emissions":3615.5},{"id":38478421,"name":"Young Power","sector":"textiles-leather-apparel","type":"Final Product Assembly","lon":22.91842,"lat":40.72857,"emissions":3615.5},{"id":38479878,"name":"Karelas Yarntrade Sa","sector":"textiles-leather-apparel","type":"Yarn Dyeing","lon":23.75991,"lat":38.0623,"emissions":3615.5},{"id":38475825,"name":"Gogas Lampros","sector":"textiles-leather-apparel","type":"Final Product Assembly","lon":23.71014,"lat":38.07336,"emissions":3615.5},{"id":38477811,"name":"Pulse Of Fashion S.A. Knitwear Industry","sector":"textiles-leather-apparel","type":"Cut & Sew|Cutting|Ironing|Packaging|Product Finishing|Quality Control","lon":22.92146,"lat":40.73552,"emissions":3615.5},{"id":38471252,"name":"Mai-Tex Industrial And Commercial S.A","sector":"textiles-leather-apparel","type":"Printing | Product Dyeing And Laundering","lon":22.9411,"lat":40.63556,"emissions":3615.5},{"id":38470838,"name":"A. Itimoudis Sa","sector":"textiles-leather-apparel","type":"Printing | Product Dyeing And Laundering","lon":22.91842,"lat":40.72857,"emissions":3615.5},{"id":38471665,"name":"Xatzis-Katsikas","sector":"textiles-leather-apparel","type":"Printing | Product Dyeing And Laundering","lon":22.94442,"lat":40.64006,"emissions":3615.5},{"id":38474054,"name":"Eva Jo !!!","sector":"textiles-leather-apparel","type":"Final Product Assembly","lon":22.91336,"lat":40.69959,"emissions":3615.5},{"id":38471489,"name":"Polystamp Em P.C.","sector":"textiles-leather-apparel","type":"Printing | Product Dyeing And Laundering","lon":22.91688,"lat":40.69279,"emissions":3615.5},{"id":38471340,"name":"Papadakis Nikolaos E.E.","sector":"textiles-leather-apparel","type":"Printing | Product Dyeing And Laundering","lon":22.92831,"lat":40.69264,"emissions":3615.5},{"id":53059633,"name":"Greece_Northern Aegean_Conventional shelf","sector":"oil-and-gas-transport","type":"","lon":24.47545,"lat":40.79121,"emissions":2139.6}]}