{"iso_code":"GUY","generated_at":"2026-06-02T15:37:48-03:00","gas":"co2e_100yr","sectors":["power","fossil-fuel-operations","manufacturing","mineral-extraction"],"assets":[{"id":49534318,"name":"Powership Ela Sultan (Guyana) power station","sector":"electricity-generation","type":"oil","lon":-58.1756,"lat":6.8097,"emissions":347360.0},{"id":25454636,"name":"Kingston 11","sector":"electricity-generation","type":"oil","lon":-58.1654,"lat":6.8228,"emissions":175120.0},{"id":25455545,"name":"Vreed en Hoop","sector":"electricity-generation","type":"oil","lon":-58.179,"lat":6.809,"emissions":125920.0},{"id":42233095,"name":"Omai Mine","sector":"bauxite-mining","type":"bauxite-mine","lon":-58.2805,"lat":5.93007,"emissions":16464.0},{"id":42233094,"name":"Bonasika Mine","sector":"bauxite-mining","type":"bauxite-mine","lon":-58.47026,"lat":6.41831,"emissions":3410.0}]}