{"iso_code":"HKG","generated_at":"2026-06-02T15:37:48-03:00","gas":"co2e_100yr","sectors":["power","fossil-fuel-operations","manufacturing","mineral-extraction"],"assets":[{"id":25450436,"name":"Castle Peak power station","sector":"electricity-generation","type":"coal, oil","lon":113.9205,"lat":22.3751,"emissions":9245900.0},{"id":448239,"name":"CKI Lamma power station","sector":"electricity-generation","type":"coal, gas, other_fossil","lon":114.1082,"lat":22.2189,"emissions":8981400.0},{"id":1921443,"name":"Black Point power station","sector":"electricity-generation","type":"gas","lon":113.911,"lat":22.4138,"emissions":8978900.0},{"id":42547303,"name":"Green Island Tap Shek Kok Cement Plant","sector":"cement","type":"integrated dry","lon":113.92376,"lat":22.37116,"emissions":1063698.6},{"id":38468425,"name":"Longyan City Yongding District Jingguang Building Materials Co., Ltd.","sector":"lime","type":"Manufacturer | Lime | Hydrated Lime | Ash Calcium Powder","lon":114.19372,"lat":22.27519,"emissions":269846.6},{"id":715231,"name":"Penny's Bay power station","sector":"electricity-generation","type":"oil","lon":114.0417,"lat":22.3207,"emissions":131520.0},{"id":38467800,"name":"Longyan City Yongding District Baiyan Building Materials Co., Ltd.","sector":"lime","type":"Manufacturer | Lime | Quick Lime | Hydrated Lime | Ash Calcium Powder | Calcium Carbonate","lon":114.20989,"lat":22.34761,"emissions":39507.9},{"id":38477092,"name":"Direct Source (Far East) Limited","sector":"textiles-leather-apparel","type":"Final Product Assembly","lon":114.21957,"lat":22.31469,"emissions":78.2},{"id":38478864,"name":"Bra Pro Limited","sector":"textiles-leather-apparel","type":"Final Product Assembly","lon":114.15903,"lat":22.28023,"emissions":78.2},{"id":38478931,"name":"Cobalt Fashion Llc","sector":"textiles-leather-apparel","type":"Dyeing And Finishing","lon":114.17961,"lat":22.31857,"emissions":78.2},{"id":38477282,"name":"Ever Shine Garments Ltd.","sector":"textiles-leather-apparel","type":"Final Product Assembly","lon":114.19693,"lat":22.33605,"emissions":78.2},{"id":38479540,"name":"Hispano Ltd.","sector":"textiles-leather-apparel","type":"Tannery|Embossing","lon":114.14538,"lat":22.33831,"emissions":78.2},{"id":38479670,"name":"International Cosmetic Suppliers Ltd.","sector":"textiles-leather-apparel","type":"Ordering Raw Materials|Bulk Production|Filling|Assembling","lon":114.20478,"lat":22.29324,"emissions":78.2},{"id":38471422,"name":"Sheng Ce Trading Co., Ltd","sector":"textiles-leather-apparel","type":"Printing | Product Dyeing And Laundering","lon":114.17771,"lat":22.27879,"emissions":78.2},{"id":38480030,"name":"Komar Sourcing Limited","sector":"textiles-leather-apparel","type":"Dyeing And Finishing","lon":114.22546,"lat":22.30817,"emissions":78.2},{"id":38472145,"name":"Beibang Industry Limited","sector":"textiles-leather-apparel","type":"Sew|Assemble","lon":114.16882,"lat":22.321,"emissions":78.2},{"id":38477694,"name":"Ids Fashions Hong Kong Ltd","sector":"textiles-leather-apparel","type":"Final Product Assembly","lon":114.22546,"lat":22.30817,"emissions":78.2},{"id":38478086,"name":"Sew Solution Limited","sector":"textiles-leather-apparel","type":"Final Product Assembly","lon":114.22609,"lat":22.30944,"emissions":78.2},{"id":38478288,"name":"South Asia Enterprises Limited","sector":"textiles-leather-apparel","type":"Final Product Assembly","lon":114.22386,"lat":22.31162,"emissions":78.2},{"id":38478276,"name":"Suxing Garment (Hong Kong) Co.,Ltd","sector":"textiles-leather-apparel","type":"Final Product Assembly","lon":114.17649,"lat":22.29756,"emissions":78.2},{"id":38478293,"name":"South Ocean Knitters Ltd.","sector":"textiles-leather-apparel","type":"Finished Goods","lon":114.14588,"lat":22.33692,"emissions":78.2},{"id":38472904,"name":"Chanco Global Holding Limited","sector":"textiles-leather-apparel","type":"Finished Goods","lon":114.15769,"lat":22.28249,"emissions":78.2},{"id":38472917,"name":"Grand Home (Hong Kong) Co. Ltd","sector":"textiles-leather-apparel","type":"Finished Goods","lon":114.10812,"lat":22.3747,"emissions":78.2},{"id":38478580,"name":"Aaron Pacific Ltd.","sector":"textiles-leather-apparel","type":"Tannery","lon":114.22637,"lat":22.30914,"emissions":78.2},{"id":38476912,"name":"Colorich Enterprise Ltd.","sector":"textiles-leather-apparel","type":"Dyeing And Finishing","lon":114.13553,"lat":22.36847,"emissions":78.2},{"id":38478823,"name":"Black Peony (Hk) Limited","sector":"textiles-leather-apparel","type":"Spinning|Dyeing|Weaving|Fabric Mill","lon":114.20612,"lat":22.32149,"emissions":78.2},{"id":38479577,"name":"Hong Kong Vegen Industrial International Co., Ltd.","sector":"textiles-leather-apparel","type":"Tannery","lon":114.20849,"lat":22.32351,"emissions":78.2},{"id":38469887,"name":"Upw Ltd.","sector":"textiles-leather-apparel","type":"Textile Or Material Production|Mill|Spinning|Yarn Dyeing","lon":114.14867,"lat":22.33713,"emissions":78.2},{"id":38472654,"name":"Crown-Max (Hk) Ltd","sector":"textiles-leather-apparel","type":"Finished Goods","lon":114.14979,"lat":22.33923,"emissions":78.2},{"id":38472752,"name":"Winpro Enterprises Co. Ltd.","sector":"textiles-leather-apparel","type":"Final Product Assembly","lon":114.14942,"lat":22.33684,"emissions":78.2},{"id":38476865,"name":"China Ting Garment Mfg (Group) Ltd","sector":"textiles-leather-apparel","type":"Final Product Assembly","lon":114.22546,"lat":22.30817,"emissions":78.2},{"id":38477202,"name":"Fashion Star Limited","sector":"textiles-leather-apparel","type":"Final Product Assembly","lon":114.15126,"lat":22.33908,"emissions":78.2},{"id":38477326,"name":"Ftl Apparel Company Limited","sector":"textiles-leather-apparel","type":"Final Product Assembly","lon":114.19991,"lat":22.33784,"emissions":78.2},{"id":38477348,"name":"Fung Mou Enterprise","sector":"textiles-leather-apparel","type":"Final Product Assembly","lon":114.13344,"lat":22.37058,"emissions":78.2},{"id":38477437,"name":"Golden Venture (Hong Kong) Limited","sector":"textiles-leather-apparel","type":"Final Product Assembly","lon":114.22303,"lat":22.30839,"emissions":78.2},{"id":38477626,"name":"Hs Fashion Hong Kong Limited","sector":"textiles-leather-apparel","type":"Final Product Assembly","lon":114.16977,"lat":22.29698,"emissions":78.2},{"id":38478150,"name":"Profits Fund Global Holding Ltd.","sector":"textiles-leather-apparel","type":"Assembly|Cutting|Cut & Sew|Finished Goods|Sewing","lon":114.12433,"lat":22.35248,"emissions":78.2},{"id":38478295,"name":"South Ocean Knitters Ltd.","sector":"textiles-leather-apparel","type":"Final Product Assembly","lon":114.16724,"lat":22.32667,"emissions":78.2},{"id":38478301,"name":"Sweater Garment (Hk) Limited","sector":"textiles-leather-apparel","type":"Final Product Assembly","lon":114.13232,"lat":22.36202,"emissions":78.2},{"id":38478381,"name":"Texpro Hong Kong Limited","sector":"textiles-leather-apparel","type":"Final Product Assembly","lon":114.16892,"lat":22.2947,"emissions":78.2},{"id":38478645,"name":"Winning Resources Ltd","sector":"textiles-leather-apparel","type":"Dyeing And Finishing","lon":114.16936,"lat":22.3193,"emissions":78.2},{"id":38478836,"name":"Bondex Textiles Limited","sector":"textiles-leather-apparel","type":"Dyeing And Finishing","lon":114.20794,"lat":22.32203,"emissions":78.2},{"id":38478903,"name":"Consumer Testing Laboratories (Far East) Ltd","sector":"textiles-leather-apparel","type":"Dyeing And Finishing","lon":114.13829,"lat":22.36796,"emissions":78.2},{"id":38479200,"name":"Epic Designers Ltd.","sector":"textiles-leather-apparel","type":"Dyeing And Finishing","lon":114.22459,"lat":22.30817,"emissions":78.2},{"id":38479246,"name":"Ecico Group Limited","sector":"textiles-leather-apparel","type":"Finished Goods","lon":114.16247,"lat":22.32454,"emissions":78.2},{"id":38479934,"name":"L&A Lingerie Co. Ltd.","sector":"textiles-leather-apparel","type":"Final Product Assembly","lon":114.16237,"lat":22.32063,"emissions":78.2},{"id":38480092,"name":"Meier Global Trading(H.K) Limited","sector":"textiles-leather-apparel","type":"Final Product Assembly","lon":114.15555,"lat":22.2854,"emissions":78.2}]}