{"iso_code":"HUN","generated_at":"2026-06-02T15:37:50-03:00","gas":"co2e_100yr","sectors":["power","fossil-fuel-operations","manufacturing","mineral-extraction"],"assets":[{"id":53058812,"name":"Hungary_Pannonian_Conventional onshore","sector":"oil-and-gas-production","type":"","lon":19.75889,"lat":46.65384,"emissions":3706362.8},{"id":25451360,"name":"Matra power station","sector":"electricity-generation","type":"coal, gas","lon":20.0702,"lat":47.7894,"emissions":2183200.0},{"id":1753587,"name":"MOL Szazhalombatta Refinery","sector":"oil-and-gas-refining","type":"Deep Conversion","lon":18.89803,"lat":47.28644,"emissions":1976622.6},{"id":38469158,"name":"Ge Hungary Zrt.","sector":"glass","type":"Glass Manufacturing","lon":16.99264,"lat":46.47098,"emissions":1341521.9},{"id":42546336,"name":"Miskolc Cement Plant","sector":"cement","type":"integrated dry","lon":18.50573,"lat":47.75033,"emissions":997108.3},{"id":447786,"name":"Dunamenti power station","sector":"electricity-generation","type":"gas, other_fossil, oil","lon":18.9169,"lat":47.3283,"emissions":973560.0},{"id":18648361,"name":"Tiszai Vegyi Kombinat Ltd., Tiszaujvaros ","sector":"petrochemical-steam-cracking","type":"Naphtha","lon":21.02898,"lat":47.91845,"emissions":969582.4},{"id":32438490,"name":"Beremend Cement Plant","sector":"cement","type":"integrated dry","lon":19.10154,"lat":47.80948,"emissions":767385.5},{"id":53058813,"name":"Hungary_Pannonian_Shale gas","sector":"oil-and-gas-production","type":"","lon":21.34641,"lat":46.81464,"emissions":457611.3},{"id":32438491,"name":"Vac Cement Plant","sector":"cement","type":"integrated dry","lon":17.98389,"lat":46.01598,"emissions":397226.9},{"id":25453837,"name":"Gönyűi power station","sector":"electricity-generation","type":"gas","lon":17.8033,"lat":47.7384,"emissions":388960.0},{"id":33999044,"name":"HUN-Várpalota_ammonia","sector":"chemicals","type":"ammonia","lon":18.11365,"lat":47.18483,"emissions":352996.7},{"id":1566833,"name":"Liberty Steel Dunaferr Dunaújváros steel plant","sector":"iron-and-steel","type":"BOF","lon":18.93896,"lat":46.94571,"emissions":348000.0},{"id":33999247,"name":"HUN-Kazincbarcikai_ammonia","sector":"chemicals","type":"ammonia","lon":20.55086,"lat":48.30329,"emissions":300403.3},{"id":38480559,"name":"Hungrana Kft.","sector":"food-beverage-tobacco","type":"Animal And Vegetable Products From The Food And Beverage Sector","lon":18.71979,"lat":47.0851,"emissions":295988.8},{"id":38480560,"name":"Kometa 99 Zrt.","sector":"food-beverage-tobacco","type":"Animal And Vegetable Products From The Food And Beverage Sector","lon":17.82473,"lat":46.35776,"emissions":263043.4},{"id":32438488,"name":"Kiralyegyhaza Cement Plant","sector":"cement","type":"integrated dry","lon":20.79724,"lat":48.06696,"emissions":259309.6},{"id":447748,"name":"Csepel power station","sector":"electricity-generation","type":"gas, other_fossil, oil","lon":19.0525,"lat":47.428,"emissions":246486.3},{"id":38469152,"name":"Ge Hungary Zrt.","sector":"glass","type":"Glass Manufacturing","lon":19.14218,"lat":47.7782,"emissions":207865.8},{"id":38469157,"name":"Ge Hungary Kft.","sector":"glass","type":"Glass Manufacturing","lon":19.08321,"lat":47.57658,"emissions":207865.8},{"id":38469156,"name":"Lighttech Lámpatechnológiai Kft.","sector":"glass","type":"Glass Manufacturing","lon":19.12799,"lat":47.62621,"emissions":207865.8},{"id":38469154,"name":"O-I Manufacturing Magyarország Kft.","sector":"glass","type":"Glass Manufacturing","lon":20.68752,"lat":46.57669,"emissions":207865.8},{"id":38469153,"name":"R-Glass Hungary Kft.","sector":"glass","type":"Glass Manufacturing","lon":19.80192,"lat":48.09777,"emissions":207865.8},{"id":52976096,"name":"Oroszlány power station","sector":"electricity-generation","type":"coal, biomass","lon":18.2697,"lat":47.5018,"emissions":175290.0},{"id":447534,"name":"Kelenföldi Erőmű power station","sector":"electricity-generation","type":"gas, other_fossil, oil","lon":19.0563,"lat":47.4624,"emissions":154920.0},{"id":447468,"name":"Bakony power station","sector":"electricity-generation","type":"coal, biomass","lon":17.5584,"lat":47.0956,"emissions":147770.0},{"id":6156,"name":"Ajka power station","sector":"electricity-generation","type":"gas","lon":17.556,"lat":47.0946,"emissions":145390.0},{"id":15888,"name":"Visonta Coal Mine","sector":"coal-mining","type":"Surface","lon":20.05592,"lat":47.74789,"emissions":115261.2},{"id":3673198,"name":"Arconic-Köfém Kft.","sector":"other-metals","type":"Non-ferrous metal smelting and alloying","lon":18.46724,"lat":47.1898,"emissions":114000.0},{"id":38469155,"name":"Guardian Orosháza Korlátolt Felelősségű Társaság","sector":"glass","type":"Glass Manufacturing","lon":20.68643,"lat":46.58677,"emissions":113538.8},{"id":38480558,"name":"Bunge Zrt.","sector":"food-beverage-tobacco","type":"Animal And Vegetable Products From The Food And Beverage Sector","lon":20.29166,"lat":47.04011,"emissions":111818.8},{"id":38467590,"name":"Carmeuse Hungária Kft.","sector":"lime","type":"Lime Production In Rotary Kilns","lon":18.40385,"lat":45.80653,"emissions":107753.6},{"id":449943,"name":"Borsodchem power station","sector":"electricity-generation","type":"gas, other_fossil, oil","lon":20.6846,"lat":48.2356,"emissions":106547.0},{"id":38467591,"name":"Calmit Hungária Kft.","sector":"lime","type":"Lime Production In Rotary Kilns","lon":18.50601,"lat":47.74909,"emissions":100563.3},{"id":447785,"name":"ISD Power station","sector":"electricity-generation","type":"gas","lon":18.9438,"lat":46.9444,"emissions":100561.0},{"id":3163419,"name":"Bükkábrány Coal Mine","sector":"coal-mining","type":"Surface","lon":20.71753,"lat":47.8872,"emissions":88507.4},{"id":717648,"name":"North Buda power station","sector":"electricity-generation","type":"gas","lon":19.0378,"lat":47.5642,"emissions":81760.0},{"id":447535,"name":"Kispesti Erőmű power station","sector":"electricity-generation","type":"gas, other_fossil, oil","lon":19.1673,"lat":47.4568,"emissions":79928.0},{"id":447536,"name":"Újpesti power station","sector":"electricity-generation","type":"gas, other_fossil, oil","lon":19.1023,"lat":47.554,"emissions":79117.0},{"id":53059655,"name":"Hungary_Pannonian_Conventional onshore","sector":"oil-and-gas-transport","type":"","lon":19.75889,"lat":46.65384,"emissions":71325.2},{"id":25452727,"name":"Lőrinci power station","sector":"electricity-generation","type":"oil","lon":19.6778,"lat":47.7164,"emissions":58523.0},{"id":53059656,"name":"Hungary_Pannonian_Shale gas","sector":"oil-and-gas-transport","type":"","lon":21.34641,"lat":46.81464,"emissions":32757.4},{"id":717378,"name":"Miskolc Hold power station","sector":"electricity-generation","type":"gas, other_fossil","lon":20.7473,"lat":48.0949,"emissions":30860.0},{"id":717167,"name":"TVK Industrial power station","sector":"electricity-generation","type":"gas, other_fossil","lon":21.0236,"lat":47.9144,"emissions":27220.0},{"id":49701042,"name":"Tatabanya power station","sector":"electricity-generation","type":"gas","lon":18.4288,"lat":47.5606,"emissions":26781.0},{"id":710591,"name":"Ormosszén Coal Mine","sector":"coal-mining","type":"Surface","lon":20.55486,"lat":48.27803,"emissions":22126.9},{"id":44375551,"name":"Dunacell Kft. Pulp Mill","sector":"pulp-and-paper","type":"Pulp from fibres other than wood","lon":18.93654,"lat":46.92718,"emissions":13944.0},{"id":4404107,"name":"Sajoszoged power station","sector":"electricity-generation","type":"oil","lon":20.9698,"lat":47.9394,"emissions":8014.1},{"id":4404106,"name":"Liter power station","sector":"electricity-generation","type":"oil","lon":18.0146,"lat":47.1076,"emissions":6115.8}]}