{"iso_code":"JOR","generated_at":"2026-06-02T15:37:56-03:00","gas":"co2e_100yr","sectors":["power","fossil-fuel-operations","manufacturing","mineral-extraction"],"assets":[{"id":449981,"name":"Samra power plant","sector":"electricity-generation","type":"gas, other_fossil","lon":36.1418,"lat":32.1433,"emissions":2155600.0},{"id":451620,"name":"IPP3 ICE power plant","sector":"electricity-generation","type":"gas","lon":36.18,"lat":31.9087,"emissions":1897900.0},{"id":715123,"name":"Aqaba power plant","sector":"electricity-generation","type":"gas","lon":34.9772,"lat":29.3764,"emissions":1474100.0},{"id":451397,"name":"Al Qatrana power plant","sector":"electricity-generation","type":"gas, other_fossil","lon":36.0197,"lat":31.2226,"emissions":850890.0},{"id":452700,"name":"Zarqa power plant","sector":"electricity-generation","type":"other_fossil, gas","lon":36.1279,"lat":32.1192,"emissions":796200.0},{"id":25454425,"name":"IPP4 Al-Manakher power plant","sector":"electricity-generation","type":"gas","lon":36.0793,"lat":31.897,"emissions":793790.0},{"id":448364,"name":"Rehab power plant","sector":"electricity-generation","type":"gas, other_fossil","lon":36.0506,"lat":32.3311,"emissions":713550.0},{"id":1897321,"name":"Balam Cement Plant","sector":"cement","type":"integrated dry","lon":36.20169,"lat":32.21518,"emissions":663389.9},{"id":1897324,"name":"Quatranah Cement Plant","sector":"cement","type":"integrated dry","lon":36.07398,"lat":31.18605,"emissions":658455.8},{"id":32438793,"name":"Um Al Rasas Cement Plant","sector":"cement","type":"integrated dry","lon":36.12806,"lat":31.33413,"emissions":432009.9},{"id":3143995,"name":"Jordan Petroleum Al Zarqa Refinery","sector":"oil-and-gas-refining","type":"Medium Conversion","lon":36.11216,"lat":32.12467,"emissions":353663.4},{"id":53058879,"name":"Jordan_Tabuk_Conventional onshore","sector":"oil-and-gas-production","type":"","lon":38.08435,"lat":32.04703,"emissions":220971.9},{"id":42546621,"name":"Muaqqar Cement Plant","sector":"cement","type":"integrated dry","lon":36.18924,"lat":31.75248,"emissions":220646.3},{"id":4406872,"name":"Attarat power plant","sector":"electricity-generation","type":"oil","lon":36.449,"lat":31.2686,"emissions":164590.0},{"id":1897322,"name":"Dhlail Cement Plant","sector":"cement","type":"integrated dry","lon":36.30434,"lat":32.09882,"emissions":146838.7},{"id":451066,"name":"Amman East power plant","sector":"electricity-generation","type":"oil, other_fossil","lon":36.0798,"lat":31.8991,"emissions":136990.0},{"id":1897320,"name":"Bsaira Cement Plant","sector":"cement","type":"integrated dry","lon":35.63188,"lat":30.67915,"emissions":58907.2},{"id":53059722,"name":"Jordan_Tabuk_Conventional onshore","sector":"oil-and-gas-transport","type":"","lon":38.08435,"lat":32.04703,"emissions":47823.3},{"id":451203,"name":"Al Qatrana Cement power plant","sector":"electricity-generation","type":"oil","lon":36.0248,"lat":31.223,"emissions":17508.0},{"id":38475270,"name":"Casual Wear Apparel L.L.C.","sector":"textiles-leather-apparel","type":"Assembly","lon":35.90555,"lat":31.94921,"emissions":82.3},{"id":38477684,"name":"Classic Fashion Apparel Industry Ltd Co. - Unit 02","sector":"textiles-leather-apparel","type":"Final Product Assembly","lon":36.02994,"lat":32.50092,"emissions":82.3},{"id":38478227,"name":"Sidney Apparels Llc","sector":"textiles-leather-apparel","type":"Final Product Assembly","lon":35.00632,"lat":29.53205,"emissions":82.3},{"id":38478553,"name":"Al-Hanan Textile Co.","sector":"textiles-leather-apparel","type":"Assembly","lon":35.84689,"lat":32.55681,"emissions":82.3},{"id":38478885,"name":"Camel Textile International Corp.","sector":"textiles-leather-apparel","type":"Assembly","lon":35.70477,"lat":31.18535,"emissions":82.3},{"id":38479338,"name":"Gia Apparel Industry - Unit 3","sector":"textiles-leather-apparel","type":"Final Product Assembly","lon":35.02079,"lat":29.6091,"emissions":82.3},{"id":38471992,"name":"United Creations Llc","sector":"textiles-leather-apparel","type":"Assembly | Cutting | Embroidery | Heat Transfer | Ironing | Packing | Pressing | Printing | Samples | Screen Print | Sewing","lon":36.26377,"lat":32.11889,"emissions":82.3},{"id":38473561,"name":"Jerash Garments & Fashions Manufacturing Co Ltd [Unit 2]","sector":"textiles-leather-apparel","type":"Final Product Assembly","lon":35.91063,"lat":31.95395,"emissions":82.3},{"id":38474688,"name":"Jerash Garments & Fashions Manufacturing Co Ltd [Unit 1]","sector":"textiles-leather-apparel","type":"Finished Goods","lon":35.91063,"lat":31.95395,"emissions":82.3},{"id":38474741,"name":"Sidney Apparels Llc","sector":"textiles-leather-apparel","type":"Final Product Assembly","lon":35.7763,"lat":31.8745,"emissions":82.3},{"id":38478926,"name":"Classic Fashion Apparel Industry Ltd Co. Printing Unit","sector":"textiles-leather-apparel","type":"Final Product Assembly","lon":36.02994,"lat":32.50092,"emissions":82.3},{"id":38472057,"name":"Al Masera Textiles Co. [Bdg.1]","sector":"textiles-leather-apparel","type":"Final Product Assembly","lon":36.02994,"lat":32.50092,"emissions":82.3},{"id":38472291,"name":"Classic Fashion Apparel Industry Ltd Co. - Unit 1","sector":"textiles-leather-apparel","type":"Assembly","lon":36.02994,"lat":32.50092,"emissions":82.3},{"id":38472546,"name":"Needle Craft","sector":"textiles-leather-apparel","type":"Assembly | Compression Molding | Cutting | Emboss | Embroidery | Finishing | Ironing | Lamination | Packing | Pressing | Printing | Samples | Screen Print | Seam Seal | Sewing","lon":36.09421,"lat":32.06085,"emissions":82.3},{"id":38473406,"name":"Classic Fashion Apparel Industry Ltd Co. Printing Unit","sector":"textiles-leather-apparel","type":"Final Product Assembly","lon":36.02994,"lat":32.50092,"emissions":82.3},{"id":38474200,"name":"Jerash Garments And Fashion Manufacturing Co., Ltd. (Unit 4)","sector":"textiles-leather-apparel","type":"Finished Goods","lon":35.9784,"lat":31.86651,"emissions":82.3},{"id":38474950,"name":"Mustafa & Kamal Ashraf Trading (Jordan) Garments Ltd [Unit 6]","sector":"textiles-leather-apparel","type":"Finished Goods","lon":35.98022,"lat":31.86858,"emissions":82.3},{"id":38475116,"name":"Pine Tree Company For Textile Manufacturing Psc","sector":"textiles-leather-apparel","type":"Finished Goods","lon":36.1063,"lat":31.81207,"emissions":82.3},{"id":38475340,"name":"Classic Fashion Apparel Industry Ltd Co Unit-6","sector":"textiles-leather-apparel","type":"Assembly","lon":36.02994,"lat":32.50092,"emissions":82.3},{"id":38476619,"name":"Vega Textile Ltd","sector":"textiles-leather-apparel","type":"Assembly","lon":35.70477,"lat":31.18535,"emissions":82.3},{"id":38476699,"name":"Classic Fashion Apparel Industry Ltd. Co- Sampling Unit","sector":"textiles-leather-apparel","type":"Final Product Assembly","lon":36.02994,"lat":32.50092,"emissions":82.3},{"id":38477216,"name":"Fine Apparel Llc","sector":"textiles-leather-apparel","type":"Cutting | Finishing | Packing | Sewing","lon":35.90555,"lat":31.94921,"emissions":82.3},{"id":38477782,"name":"Mas Al Safi Apparel Manufacturing Llc - Madaba","sector":"textiles-leather-apparel","type":"Finished Goods","lon":35.8071,"lat":31.58641,"emissions":82.3},{"id":38478236,"name":"Sterling Apparel Manufacturing L.L.C","sector":"textiles-leather-apparel","type":"Finished Goods","lon":35.7942,"lat":31.71771,"emissions":82.3},{"id":38478473,"name":"Al-Areen Wear Company","sector":"textiles-leather-apparel","type":"Assembly","lon":35.87858,"lat":32.54912,"emissions":82.3},{"id":38478589,"name":"Al Masera Expansion","sector":"textiles-leather-apparel","type":"Final Product Assembly","lon":36.00674,"lat":32.56101,"emissions":82.3},{"id":38478608,"name":"Ad Dulyal","sector":"textiles-leather-apparel","type":"Finished Goods","lon":36.26377,"lat":32.11889,"emissions":82.3},{"id":38479629,"name":"Indo Jordan Clothing Company L.L.C","sector":"textiles-leather-apparel","type":"Assembly","lon":36.26377,"lat":32.11889,"emissions":82.3}]}