{"iso_code":"KAZ","generated_at":"2026-06-02T15:37:57-03:00","gas":"co2e_100yr","sectors":["power","fossil-fuel-operations","manufacturing","mineral-extraction"],"assets":[{"id":53058886,"name":"Kazakhstan_Precaspian_Conventional onshore","sector":"oil-and-gas-production","type":"","lon":53.99829,"lat":47.5022,"emissions":27186811.9},{"id":25450168,"name":"Ekibastuz-1 power station","sector":"electricity-generation","type":"coal","lon":75.3769,"lat":51.8861,"emissions":13051500.0},{"id":708729,"name":"Bogatyr Coal Mine (Kazakhstan)","sector":"coal-mining","type":"Surface","lon":75.4336,"lat":51.6555,"emissions":12006872.4},{"id":53058881,"name":"Kazakhstan_Mangyshlak - Ustyurt_Conventional onshore","sector":"oil-and-gas-production","type":"","lon":51.96428,"lat":43.69357,"emissions":9543123.4},{"id":53058885,"name":"Kazakhstan_Precaspian_Acid/sour gas","sector":"oil-and-gas-production","type":"","lon":51.36025,"lat":50.10258,"emissions":8538858.9},{"id":1566964,"name":"Qarmet steel plant","sector":"iron-and-steel","type":"BF/BOF","lon":73.03052,"lat":50.04815,"emissions":7938008.1},{"id":448400,"name":"Zhambyl GRES power station","sector":"electricity-generation","type":"gas","lon":71.4769,"lat":42.845,"emissions":7471300.0},{"id":25451202,"name":"Aksu power station","sector":"electricity-generation","type":"coal","lon":76.875,"lat":52.12,"emissions":7211100.0},{"id":16131,"name":"Vostochny Coal Mine (Kazakhstan)","sector":"coal-mining","type":"Surface","lon":75.45192,"lat":51.68669,"emissions":6103589.0},{"id":53059729,"name":"Kazakhstan_Precaspian_Conventional onshore","sector":"oil-and-gas-transport","type":"","lon":53.99829,"lat":47.5022,"emissions":4370016.0},{"id":16125,"name":"Severny Coal Mine","sector":"coal-mining","type":"Surface","lon":75.36986,"lat":51.7155,"emissions":4085556.3},{"id":25453843,"name":"MAEK 3 power station","sector":"electricity-generation","type":"gas","lon":51.2893,"lat":43.597,"emissions":3383700.0},{"id":25450638,"name":"Ekibastuz-2 power station","sector":"electricity-generation","type":"coal","lon":75.4762,"lat":52.024,"emissions":3263000.0},{"id":451034,"name":"MAEK 2 power station","sector":"electricity-generation","type":"gas","lon":51.2812,"lat":43.6063,"emissions":3140100.0},{"id":43765047,"name":"Pavlodar Alumina Refinery (KAS)","sector":"aluminum","type":"Refinery","lon":77.04773,"lat":52.25821,"emissions":3134601.0},{"id":16123,"name":"Molodezhny Coal Mine","sector":"coal-mining","type":"Surface","lon":73.65624,"lat":50.86138,"emissions":2425752.0},{"id":449842,"name":"Tengizchevroil 3 power station","sector":"electricity-generation","type":"gas","lon":53.4105,"lat":46.1521,"emissions":2154700.0},{"id":25450588,"name":"Topar power station","sector":"electricity-generation","type":"coal","lon":72.7986,"lat":49.5133,"emissions":2000200.0},{"id":25450350,"name":"Petropavlovsk-2 power station","sector":"electricity-generation","type":"coal","lon":69.1874,"lat":54.8979,"emissions":1961300.0},{"id":25451193,"name":"Karaganda-3 power station","sector":"electricity-generation","type":"coal","lon":73.2372,"lat":49.9167,"emissions":1878100.0},{"id":53058884,"name":"Kazakhstan_North Ustyurt_Heavy oil","sector":"oil-and-gas-production","type":"","lon":51.55772,"lat":45.0,"emissions":1778539.2},{"id":53059728,"name":"Kazakhstan_Precaspian_Acid/sour gas","sector":"oil-and-gas-transport","type":"","lon":51.36025,"lat":50.10258,"emissions":1776915.9},{"id":53058889,"name":"Kazakhstan_Turgay_Conventional onshore","sector":"oil-and-gas-production","type":"","lon":65.26462,"lat":46.15977,"emissions":1764491.1},{"id":3143997,"name":"Shymkent Oil Refinery","sector":"oil-and-gas-refining","type":"Deep Conversion","lon":69.65261,"lat":42.26126,"emissions":1675090.6},{"id":449552,"name":"Almaty-2 power station","sector":"electricity-generation","type":"coal, gas","lon":76.7985,"lat":43.2929,"emissions":1664300.0},{"id":3143998,"name":"KazMunayGas Atyrau Refinery","sector":"oil-and-gas-refining","type":"Deep Conversion","lon":51.92408,"lat":47.0739,"emissions":1617640.6},{"id":3143996,"name":"KazMunayGas Pavlodar Refinery","sector":"oil-and-gas-refining","type":"Deep Conversion","lon":76.91263,"lat":52.37081,"emissions":1603934.2},{"id":448399,"name":"Atyrau CHP power station","sector":"electricity-generation","type":"gas, oil","lon":51.9422,"lat":47.0818,"emissions":1529600.0},{"id":25455505,"name":"Pavlodar-3 power station","sector":"electricity-generation","type":"coal","lon":76.9345,"lat":52.3666,"emissions":1520900.0},{"id":448829,"name":"Pavlodar-1 power station","sector":"electricity-generation","type":"coal","lon":77.0594,"lat":52.2499,"emissions":1464300.0},{"id":25451192,"name":"Karaganda-2 power station","sector":"electricity-generation","type":"coal","lon":73.0532,"lat":50.0467,"emissions":1419400.0},{"id":53059724,"name":"Kazakhstan_Mangyshlak - Ustyurt_Conventional onshore","sector":"oil-and-gas-transport","type":"","lon":51.96428,"lat":43.69357,"emissions":1273185.3},{"id":452553,"name":"Karabatan power station","sector":"electricity-generation","type":"other_fossil, gas","lon":52.2772,"lat":47.3442,"emissions":1197470.0},{"id":25450201,"name":"Ust-Kamenogorsk power station","sector":"electricity-generation","type":"coal","lon":82.6143,"lat":49.983,"emissions":1179620.0},{"id":25450351,"name":"Astana-2 power station","sector":"electricity-generation","type":"coal","lon":71.5103,"lat":51.1883,"emissions":1174700.0},{"id":1897365,"name":"Kokshe Cement Plant","sector":"cement","type":"integrated dry","lon":71.21871,"lat":53.15968,"emissions":1072325.3},{"id":450641,"name":"Kashagan power station","sector":"electricity-generation","type":"gas, other_fossil","lon":53.409,"lat":46.1785,"emissions":1029160.0},{"id":45944943,"name":"Zhezkazgan South Mine","sector":"copper-mining","type":"copper-mine","lon":67.41692,"lat":47.86811,"emissions":947705.0},{"id":25451204,"name":"Shymkent CHP-3 power station","sector":"electricity-generation","type":"gas","lon":69.6936,"lat":42.2734,"emissions":866260.0},{"id":16130,"name":"V. I. Lenin (Kazakhstan) Coal Mine","sector":"coal-mining","type":"Underground","lon":72.52195,"lat":49.72551,"emissions":670602.4},{"id":448389,"name":"Zhezkazgan power station","sector":"electricity-generation","type":"coal","lon":67.744,"lat":47.7855,"emissions":659130.0},{"id":32438828,"name":"HeidelbergCement Shymkentcement Plant","sector":"cement","type":"integrated mixed","lon":69.6495,"lat":42.29102,"emissions":638278.7},{"id":16124,"name":"Saranskaya Coal Mine","sector":"coal-mining","type":"Underground","lon":72.89519,"lat":49.77306,"emissions":622702.3},{"id":42741765,"name":"Sin Yuan Steel Shymkent steel plant","sector":"iron-and-steel","type":"BF/BOF","lon":69.7261,"lat":42.27226,"emissions":610616.0},{"id":42547281,"name":"Korday Cement Plant","sector":"cement","type":"integrated dry","lon":74.86605,"lat":43.0164,"emissions":604732.5},{"id":25457263,"name":"Karaganda Steel Works power station","sector":"electricity-generation","type":"coal, gas","lon":73.0224,"lat":50.0481,"emissions":603640.0},{"id":32438829,"name":"Jambyl Cement Plant","sector":"cement","type":"integrated dry","lon":73.65626,"lat":45.38847,"emissions":578877.7},{"id":25452350,"name":"Almaty-3 power station","sector":"electricity-generation","type":"coal","lon":77.0067,"lat":43.4242,"emissions":564490.0},{"id":16121,"name":"Kuzembaev Coal Mine","sector":"coal-mining","type":"Underground","lon":72.96611,"lat":49.80588,"emissions":563688.3},{"id":715163,"name":"Rudny power station","sector":"electricity-generation","type":"coal, gas","lon":63.1298,"lat":52.9896,"emissions":560410.0},{"id":25451191,"name":"KARAGANDA HPS-1","sector":"electricity-generation","type":"coal","lon":73.0824,"lat":49.8424,"emissions":544920.0},{"id":25454894,"name":"Kumkol","sector":"electricity-generation","type":"gas","lon":65.7007,"lat":46.4259,"emissions":533580.0},{"id":447398,"name":"Akturbo power station","sector":"electricity-generation","type":"gas, other_fossil","lon":57.1392,"lat":50.3364,"emissions":512500.0},{"id":3673101,"name":"Pavlodar aluminium plant","sector":"aluminum","type":"Smelting","lon":77.19183,"lat":52.20821,"emissions":512367.4},{"id":16126,"name":"Shakhtinskaya Coal Mine","sector":"coal-mining","type":"Underground","lon":72.61783,"lat":49.76427,"emissions":507741.8},{"id":16127,"name":"Shubarkol Centralny Coal Mine","sector":"coal-mining","type":"Surface","lon":68.61455,"lat":49.01735,"emissions":500399.0},{"id":16128,"name":"Shubarkol Zapadny Coal Mine","sector":"coal-mining","type":"Surface","lon":68.53536,"lat":49.01064,"emissions":500399.0},{"id":32438832,"name":"Semey Cement Plant","sector":"cement","type":"integrated wet","lon":80.17761,"lat":50.39897,"emissions":500207.1},{"id":448388,"name":"Kazakhmys Balkhash power station","sector":"electricity-generation","type":"coal","lon":74.9493,"lat":46.829,"emissions":489440.0},{"id":451179,"name":"Stepnogorsk power station","sector":"electricity-generation","type":"coal","lon":72.032,"lat":52.484,"emissions":483810.0},{"id":1897367,"name":"Kazakhcement Zharma Cement Plant","sector":"cement","type":"integrated dry","lon":81.17689,"lat":49.65723,"emissions":474026.9},{"id":49534260,"name":"GTPP-500 Uralsk power station","sector":"electricity-generation","type":"gas","lon":51.1009,"lat":51.2668,"emissions":473710.0},{"id":449826,"name":"Zhanazhol 3 power station","sector":"electricity-generation","type":"gas","lon":57.4335,"lat":48.3868,"emissions":454780.0},{"id":53058882,"name":"Kazakhstan_North Ustyurt_Conventional onshore","sector":"oil-and-gas-production","type":"","lon":56.22347,"lat":45.5581,"emissions":437019.9},{"id":16122,"name":"Maikubensky Coal Mine","sector":"coal-mining","type":"Surface","lon":75.69465,"lat":51.25855,"emissions":435032.5},{"id":45944905,"name":"Aktogay Mine","sector":"copper-mining","type":"copper-mine","lon":79.93856,"lat":46.95787,"emissions":433054.0},{"id":43158407,"name":"Sokolovskoye Mine","sector":"iron-mining","type":"iron-mine","lon":63.19314,"lat":53.00039,"emissions":407885.0},{"id":45944916,"name":"Karashoshak Mine","sector":"copper-mining","type":"copper-mine","lon":67.59153,"lat":48.17636,"emissions":398440.4},{"id":45944921,"name":"Kusmuryn-Akbastau Mine","sector":"copper-mining","type":"copper-mine","lon":77.78983,"lat":48.60599,"emissions":398440.4},{"id":45944920,"name":"Kundyzdy Mine","sector":"copper-mining","type":"copper-mine","lon":58.7753,"lat":49.1088,"emissions":398440.4},{"id":45944923,"name":"Nikolayevsky Mine","sector":"copper-mining","type":"copper-mine","lon":81.87674,"lat":50.54044,"emissions":398440.4},{"id":45944930,"name":"Saryoba West Mine","sector":"copper-mining","type":"copper-mine","lon":67.449,"lat":48.15355,"emissions":398440.4},{"id":45944931,"name":"Sayak-1 Mine","sector":"copper-mining","type":"copper-mine","lon":77.40765,"lat":46.99816,"emissions":398440.4},{"id":45944909,"name":"Belousovskoe Mine","sector":"copper-mining","type":"copper-mine","lon":82.50614,"lat":50.1285,"emissions":398440.4},{"id":45944946,"name":"Zhomart Mine","sector":"copper-mining","type":"copper-mine","lon":68.97931,"lat":46.84705,"emissions":398440.4},{"id":45944945,"name":"Zhilandinsky Mine","sector":"copper-mining","type":"copper-mine","lon":67.46728,"lat":48.14784,"emissions":398440.4},{"id":45944907,"name":"Aralchinsky Mine","sector":"copper-mining","type":"copper-mine","lon":59.46805,"lat":50.63724,"emissions":398440.4},{"id":45944934,"name":"Shatyrkul Mine","sector":"copper-mining","type":"copper-mine","lon":74.2595,"lat":43.61798,"emissions":398440.4},{"id":45944904,"name":"Akchi-Spassky Mine","sector":"copper-mining","type":"copper-mine","lon":67.37829,"lat":47.84508,"emissions":398440.4},{"id":45944936,"name":"Stepnoy Mine","sector":"copper-mining","type":"copper-mine","lon":67.43683,"lat":47.89368,"emissions":398440.4}]}