{"iso_code":"KHM","generated_at":"2026-06-02T15:37:59-03:00","gas":"co2e_100yr","sectors":["power","fossil-fuel-operations","manufacturing","mineral-extraction"],"assets":[{"id":25455987,"name":"Sihanoukville CIIDG power station 2","sector":"electricity-generation","type":"coal","lon":103.5962,"lat":10.7338,"emissions":4531200.0},{"id":25454658,"name":"Sihanoukville CIIDG power station","sector":"electricity-generation","type":"coal","lon":103.5835,"lat":10.7326,"emissions":2621300.0},{"id":25453845,"name":"Sihanoukville CEL power station","sector":"electricity-generation","type":"coal","lon":103.581,"lat":10.7398,"emissions":1618400.0},{"id":32438845,"name":"Kampot Cement Dang Tong Cement Plant","sector":"cement","type":"integrated dry","lon":104.51381,"lat":10.6877,"emissions":1083961.2},{"id":1897381,"name":"Battambang Conch Rotanak Mondol Cement Plant","sector":"cement","type":"integrated dry","lon":103.01628,"lat":12.87184,"emissions":811351.0},{"id":1897382,"name":"Chip Mong Insee Banteay Meas Cement Plant","sector":"cement","type":"integrated dry","lon":104.52792,"lat":10.64099,"emissions":697353.4},{"id":1897383,"name":"Cambodia Cement Chakrey Ting Factory Tuek Chhou Cement Plant","sector":"cement","type":"integrated dry","lon":104.26729,"lat":10.68446,"emissions":686630.5},{"id":49533916,"name":"Sihanoukville SEZ power station","sector":"electricity-generation","type":"coal","lon":103.6336,"lat":10.629,"emissions":647280.0},{"id":1897385,"name":"Thai Boon Roong Dang Tong Cement Plant","sector":"cement","type":"integrated dry","lon":104.35491,"lat":10.71873,"emissions":541035.1},{"id":452998,"name":"Kandal power station","sector":"electricity-generation","type":"oil","lon":105.0824,"lat":11.536,"emissions":261400.0},{"id":16770,"name":"Han Seng Coal Mine","sector":"coal-mining","type":"Underground","lon":104.31928,"lat":14.1858,"emissions":10079.4},{"id":25450711,"name":"Sihanoukville Diesel","sector":"electricity-generation","type":"oil","lon":103.6287,"lat":10.6124,"emissions":6822.6},{"id":38476802,"name":"Yorks (Cambodia) Co Ltd","sector":"textiles-leather-apparel","type":"Final Product Assembly","lon":106.11325,"lat":11.0603,"emissions":3282.5},{"id":38478599,"name":"Wan He Da Manufacturing Company Limited","sector":"textiles-leather-apparel","type":"Final Product Assembly","lon":104.8246,"lat":11.53331,"emissions":3282.5},{"id":38475037,"name":"Aeta Apparel Co","sector":"textiles-leather-apparel","type":"Final Product Assembly","lon":104.46359,"lat":10.84146,"emissions":3282.5},{"id":38470554,"name":"Winas Garment Co., Ltd.","sector":"textiles-leather-apparel","type":"Dyeing Outside|Weaving Outside|Printing Outside|Cutting|Emboridery|Sewing|Finishing|Packing|Shipping","lon":104.85714,"lat":11.60202,"emissions":3282.5},{"id":38473455,"name":"Elite (Cambodia) Co., Ltd","sector":"textiles-leather-apparel","type":"Final Product Assembly","lon":106.11652,"lat":11.05811,"emissions":3282.5},{"id":38480143,"name":"Nagapeace Corporation Ltd","sector":"textiles-leather-apparel","type":"Free-Standing Laundry","lon":105.05136,"lat":11.51028,"emissions":3282.5},{"id":38473216,"name":"Hc Global Textile Co., Ltd","sector":"textiles-leather-apparel","type":"Final Product Assembly","lon":103.74557,"lat":13.68276,"emissions":3282.5},{"id":38479963,"name":"Kkn Apparel Co., Ltd","sector":"textiles-leather-apparel","type":"Finished Goods","lon":102.95468,"lat":11.56853,"emissions":3282.5},{"id":38474721,"name":"Sheico (Cambodia) Co., Ltd","sector":"textiles-leather-apparel","type":"Final Product Assembly","lon":106.12003,"lat":11.05046,"emissions":3282.5},{"id":38479531,"name":"Footmark(Cambodia)Corporation","sector":"textiles-leather-apparel","type":"Finished Goods","lon":104.92209,"lat":11.56059,"emissions":3282.5},{"id":38477677,"name":"Hung Hsing Garment(Cambodia) Co., Ltd Branch#1","sector":"textiles-leather-apparel","type":"Free-Standing Laundry","lon":104.79877,"lat":11.28456,"emissions":3282.5},{"id":38477753,"name":"Meng Da Footwear Industrial Co., Ltd","sector":"textiles-leather-apparel","type":"Final Product Assembly","lon":104.85844,"lat":11.53112,"emissions":3282.5},{"id":38477833,"name":"Nagapeace Corporation Limited (Laundry Div)","sector":"textiles-leather-apparel","type":"Laundry| Wet Finishing","lon":105.24111,"lat":11.38856,"emissions":3282.5},{"id":38477893,"name":"Neo Meridian Industries Garment (Cambodia) Limited","sector":"textiles-leather-apparel","type":"Final Product Assembly","lon":105.00607,"lat":11.35945,"emissions":3282.5},{"id":38478130,"name":"Polymer Plastic Products (Cambodia) Co,.Ltd.","sector":"textiles-leather-apparel","type":" Finishing | Injection Molding | Packing","lon":104.67392,"lat":11.47639,"emissions":3282.5},{"id":38478286,"name":"Sortics Alliance Co., Ltd","sector":"textiles-leather-apparel","type":"Cut & Sew|Cutting|Washing|Ironing|Packaging","lon":104.60923,"lat":11.87833,"emissions":3282.5},{"id":38478303,"name":"Splendor Industry Co., Ltd.","sector":"textiles-leather-apparel","type":"Final Product Assembly","lon":104.89624,"lat":11.60518,"emissions":3282.5},{"id":38478641,"name":"Windara International Co., Ltd","sector":"textiles-leather-apparel","type":"Final Product Assembly|Cut And Sew","lon":104.63546,"lat":11.31488,"emissions":3282.5},{"id":38472396,"name":"Sparkbags (Cambodia) Co.,Ltd","sector":"textiles-leather-apparel","type":"Final Product Assembly","lon":104.7864,"lat":11.52274,"emissions":3282.5},{"id":38473766,"name":"Sixplus Industry Co., Ltd.","sector":"textiles-leather-apparel","type":"Final Product Assembly","lon":104.95057,"lat":11.75211,"emissions":3282.5},{"id":38479494,"name":"Hana-Embroidery Co Ltd","sector":"textiles-leather-apparel","type":"Free-Standing Embroidery","lon":104.8246,"lat":11.53331,"emissions":3282.5},{"id":38479556,"name":"Forever Fug Garment Co., Ltd.","sector":"textiles-leather-apparel","type":"Finished Goods","lon":105.3313,"lat":12.34177,"emissions":3282.5},{"id":38479568,"name":"Fortuna International (Cambodia) Industry Co., Ltd","sector":"textiles-leather-apparel","type":"Finished Goods","lon":104.8246,"lat":11.53331,"emissions":3282.5},{"id":38479601,"name":"Hung Yueh Enterprise Co., Ltd.","sector":"textiles-leather-apparel","type":"Finished Goods","lon":104.85276,"lat":11.59256,"emissions":3282.5},{"id":38479696,"name":"Jia Jia He Garment","sector":"textiles-leather-apparel","type":"Cutting|Ironing|Packaging|Product Finishing","lon":104.83233,"lat":11.54384,"emissions":3282.5},{"id":38473834,"name":"Bowker Garment Factory (Cambodia) Company Limited","sector":"textiles-leather-apparel","type":"Final Product Assembly","lon":104.82673,"lat":11.53399,"emissions":3282.5},{"id":38479847,"name":"Jyj(Cambodia)  Gmt  Co., Ltd","sector":"textiles-leather-apparel","type":"Final Product Assembly","lon":104.77328,"lat":11.51791,"emissions":3282.5},{"id":38479905,"name":"Kylin (Cambodia) Sports Co., Ltd","sector":"textiles-leather-apparel","type":"Final Product Assembly","lon":104.87684,"lat":11.43306,"emissions":3282.5},{"id":38472595,"name":"Sun Shui Shing Industrial (Cambodia) Co., Ltd.","sector":"textiles-leather-apparel","type":"Final Product Assembly","lon":104.50727,"lat":11.46505,"emissions":3282.5},{"id":38469561,"name":"Ealytex (Cambodia) Garment Co., Ltd","sector":"textiles-leather-apparel","type":"Cutting | Finishing | Heat Transfer | Ironing | Packing | Pressing | Samples | Sewing","lon":104.72457,"lat":11.84502,"emissions":3282.5},{"id":38474083,"name":"Golden Prosper Footwear Co,Ltd.","sector":"textiles-leather-apparel","type":"Final Product Assembly","lon":104.82211,"lat":11.48217,"emissions":3282.5},{"id":38474124,"name":"Berry Apparel (Cambodia) Co., Ltd","sector":"textiles-leather-apparel","type":"Finished Goods","lon":104.8246,"lat":11.53331,"emissions":3282.5},{"id":38474165,"name":"Bright Flushing Co., Ltd.","sector":"textiles-leather-apparel","type":"Final Product Assembly","lon":104.7218,"lat":11.02223,"emissions":3282.5},{"id":38474205,"name":"Can Sports Shoes Co., Ltd.","sector":"textiles-leather-apparel","type":"Final Product Assembly","lon":104.66809,"lat":12.25551,"emissions":3282.5},{"id":38474280,"name":"Din Ling Garment Co., Ltd","sector":"textiles-leather-apparel","type":"Final Product Assembly","lon":104.86929,"lat":11.53251,"emissions":3282.5},{"id":38474313,"name":"Joint Force Sporting Good (Cambodia) Co., Ltd","sector":"textiles-leather-apparel","type":"Final Product Assembly","lon":104.7871,"lat":11.53927,"emissions":3282.5},{"id":38474316,"name":"Joyance International (Cambodia) Apparel Coltd","sector":"textiles-leather-apparel","type":"Final Product Assembly","lon":104.78455,"lat":11.56603,"emissions":3282.5},{"id":38474408,"name":"E M B Jeilkovi (Cambodia) Co., Ltd.","sector":"textiles-leather-apparel","type":"Free-Standing Embroidery","lon":104.81445,"lat":11.55133,"emissions":3282.5},{"id":38474418,"name":"Evergreen Garment Co., Ltd","sector":"textiles-leather-apparel","type":" Cutting | Finishing | Ironing | Packing | Samples | Sewing","lon":104.90531,"lat":11.58885,"emissions":3282.5},{"id":38474481,"name":"New Ascent International Garments Limited","sector":"textiles-leather-apparel","type":"Cut & Sew|Cutting|Ironing|Packaging|Product Finishing","lon":105.04801,"lat":11.70569,"emissions":3282.5},{"id":38474522,"name":"Jade Sun Garment (Cambodia) Co., Ltd","sector":"textiles-leather-apparel","type":"Final Product Assembly","lon":104.87626,"lat":11.51885,"emissions":3282.5},{"id":38474533,"name":"Jh Garment (Cambodia) Co.Ltd.","sector":"textiles-leather-apparel","type":"Final Product Assembly","lon":104.85276,"lat":11.57043,"emissions":3282.5},{"id":38472736,"name":"Shui Yat A (Cambodia) Co.,Ltd","sector":"textiles-leather-apparel","type":"Final Product Assembly","lon":104.51436,"lat":11.4608,"emissions":3282.5},{"id":38474613,"name":"Hip Keung (Cambodia) Manufacturing Co., Ltd.","sector":"textiles-leather-apparel","type":"Finished Goods","lon":104.50727,"lat":11.46505,"emissions":3282.5},{"id":38472990,"name":"Beauty Silk Screen Ltd","sector":"textiles-leather-apparel","type":"Final Product Assembly","lon":104.8246,"lat":11.53331,"emissions":3282.5},{"id":38474621,"name":"Quantum Clothing (Cambodia) Ltd","sector":"textiles-leather-apparel","type":"Final Product Assembly","lon":104.8246,"lat":11.53331,"emissions":3282.5},{"id":38474630,"name":"Quint Major Industrial Co., Ltd.","sector":"textiles-leather-apparel","type":"Finished Goods","lon":104.72876,"lat":11.57548,"emissions":3282.5},{"id":38473041,"name":"Dewhirst (Cambodia) Co Ltd","sector":"textiles-leather-apparel","type":"Final Product Assembly","lon":105.87233,"lat":11.88309,"emissions":3282.5},{"id":38474955,"name":"Nagapeace Corporation Limited","sector":"textiles-leather-apparel","type":"Screen Print|Continuous Dye|Cold-Pad-Batch Dyeing|Digital Print","lon":105.55534,"lat":11.14846,"emissions":3282.5},{"id":38473155,"name":"F.U.G. Garment  Co., Ltd.","sector":"textiles-leather-apparel","type":"Finished Goods","lon":104.66404,"lat":11.3559,"emissions":3282.5},{"id":38473174,"name":"New Fuma Costume (Cambodia) Co  Ltd","sector":"textiles-leather-apparel","type":"Final Product Assembly","lon":104.8246,"lat":11.53331,"emissions":3282.5},{"id":38475476,"name":"Strong Health International Ltd","sector":"textiles-leather-apparel","type":"Assembly | Cutting | Finishing | Packing | Samples | Sewing","lon":104.93647,"lat":11.51087,"emissions":3282.5},{"id":38475760,"name":"Xo Tex Industrial Co., Ltd","sector":"textiles-leather-apparel","type":"Final Product Assembly","lon":104.8246,"lat":11.53331,"emissions":3282.5},{"id":38475929,"name":"Hong Ri (Cambodia) Clothing Co.,Ltd.","sector":"textiles-leather-apparel","type":"Final Product Assembly","lon":104.8246,"lat":11.53331,"emissions":3282.5},{"id":38476045,"name":"Hung Hsing Garment (Cambodia)Co.,Ltd","sector":"textiles-leather-apparel","type":"Free-Standing Laundry","lon":104.79877,"lat":10.93215,"emissions":3282.5},{"id":38476059,"name":"Hwashin Print Co.,Ltd","sector":"textiles-leather-apparel","type":"Free-Standing Screen Printing Factory","lon":104.8246,"lat":11.53331,"emissions":3282.5},{"id":38476137,"name":"Rong Win Garment Co.,Ltd","sector":"textiles-leather-apparel","type":"Final Product Assembly","lon":104.89363,"lat":11.53789,"emissions":3282.5},{"id":38476292,"name":"Kaoway Sports Ltd","sector":"textiles-leather-apparel","type":"Final Product Assembly","lon":106.11652,"lat":11.05811,"emissions":3282.5},{"id":38473257,"name":"Soho Sheng He Cambodia Garment Co Ltd","sector":"textiles-leather-apparel","type":"Final Product Assembly","lon":104.79581,"lat":11.52219,"emissions":3282.5},{"id":38473294,"name":"Trax Apparel (Cambodia) Co., Ltd","sector":"textiles-leather-apparel","type":"Final Product Assembly","lon":104.87757,"lat":11.55946,"emissions":3282.5},{"id":38476564,"name":"T.S. Sport (Cambodia) Co., Ltd.","sector":"textiles-leather-apparel","type":"Final Product Assembly | Cutting | Sewing | Packing","lon":104.99096,"lat":12.56568,"emissions":3282.5},{"id":38476581,"name":"Uic Apparel Manufacturing Co. Ltd.","sector":"textiles-leather-apparel","type":"Assembly","lon":104.78382,"lat":11.52319,"emissions":3282.5},{"id":38476585,"name":"Nature Silk Screen","sector":"textiles-leather-apparel","type":"Free-Standing Screen Printing Factory","lon":104.90676,"lat":11.53029,"emissions":3282.5},{"id":38476685,"name":"Olive Apparel (Cambodia) Co., Ltd","sector":"textiles-leather-apparel","type":"Finished Goods","lon":104.82248,"lat":11.50391,"emissions":3282.5},{"id":38476708,"name":"Outdoor Gear (Cambodia) Co., Ltd.","sector":"textiles-leather-apparel","type":"Final Product Assembly","lon":104.58967,"lat":10.91162,"emissions":3282.5},{"id":38476734,"name":"Papillion Textile (Cambodia) Co., Ltd.","sector":"textiles-leather-apparel","type":"Finished Goods","lon":103.87041,"lat":13.36099,"emissions":3282.5},{"id":38472056,"name":"Hathor International (Cambodia) Co., Ltd.","sector":"textiles-leather-apparel","type":"Final Product Assembly","lon":104.58725,"lat":10.91005,"emissions":3282.5},{"id":38476793,"name":"Camkaxin (Cambodia) Garment Co., Ltd.","sector":"textiles-leather-apparel","type":"Final Product Assembly","lon":104.82649,"lat":11.53585,"emissions":3282.5}]}