{"iso_code":"KIR","generated_at":"2026-06-02T14:20:23-03:00","gas":"co2e_100yr","sectors":["power","fossil-fuel-operations","manufacturing","mineral-extraction","transportation"],"assets":[{"id":1932354,"name":"Tarawa","sector":"domestic-shipping","type":"","lon":172.97798,"lat":1.444,"emissions":105085.9},{"id":2796077,"name":"Tarawa","sector":"international-shipping","type":"","lon":172.97798,"lat":1.444,"emissions":42825.9},{"id":51227622,"name":"Kiribati","sector":"road-transportation","type":"","lon":-155.87418,"lat":-5.64303,"emissions":37486.9},{"id":2796076,"name":"Christmas Island/Line Islands","sector":"international-shipping","type":"","lon":-157.47573,"lat":1.93748,"emissions":28542.1},{"id":1932353,"name":"Christmas Island/Line Islands","sector":"domestic-shipping","type":"","lon":-157.47573,"lat":1.93748,"emissions":22921.7},{"id":3169532,"name":"Bonriki International Airport","sector":"international-aviation","type":"international","lon":173.147,"lat":1.38164,"emissions":4520.5},{"id":3174438,"name":"Bonriki International Airport","sector":"domestic-aviation","type":"domestic","lon":173.147,"lat":1.38164,"emissions":3193.1},{"id":3166264,"name":"Cassidy International Airport","sector":"international-aviation","type":"international","lon":-157.35001,"lat":1.98628,"emissions":2779.6},{"id":3171170,"name":"Cassidy International Airport","sector":"domestic-aviation","type":"domestic","lon":-157.35001,"lat":1.98628,"emissions":2159.7},{"id":38889352,"name":"Unknown name","sector":"international-shipping","type":"","lon":-160.4047,"lat":4.6811,"emissions":1900.4},{"id":1993796,"name":"English Harbour","sector":"domestic-shipping","type":"","lon":-159.3639,"lat":3.85389,"emissions":1163.4},{"id":3174241,"name":"Tabiteuea North Airport","sector":"domestic-aviation","type":"domestic","lon":174.776,"lat":-1.22447,"emissions":515.0},{"id":38899932,"name":"Unknown name","sector":"domestic-shipping","type":"","lon":173.8972,"lat":0.4171,"emissions":485.9},{"id":1991753,"name":"Banaba","sector":"domestic-shipping","type":"","lon":169.53971,"lat":-0.86889,"emissions":143.3},{"id":3173359,"name":"Onotoa Airport","sector":"domestic-aviation","type":"domestic","lon":175.526,"lat":-1.79611,"emissions":108.7},{"id":3170655,"name":"Beru Airport","sector":"domestic-aviation","type":"domestic","lon":176.007,"lat":-1.35472,"emissions":108.6},{"id":3174450,"name":"Tabiteuea South Airport","sector":"domestic-aviation","type":"domestic","lon":175.064,"lat":-1.47444,"emissions":95.4},{"id":3170430,"name":"Arorae Island Airport","sector":"domestic-aviation","type":"domestic","lon":176.80221,"lat":-2.61623,"emissions":70.1},{"id":3173200,"name":"Nonouti Airport","sector":"domestic-aviation","type":"domestic","lon":174.42799,"lat":-0.63972,"emissions":69.0},{"id":1932352,"name":"Canton Island","sector":"domestic-shipping","type":"","lon":-171.71699,"lat":-2.83332,"emissions":67.0},{"id":3173022,"name":"Makin Island Airport","sector":"domestic-aviation","type":"domestic","lon":172.992,"lat":3.37444,"emissions":58.4},{"id":3170388,"name":"Abemama Airport","sector":"domestic-aviation","type":"domestic","lon":173.83029,"lat":0.49076,"emissions":55.3},{"id":3174378,"name":"Tamana Island Airport","sector":"domestic-aviation","type":"domestic","lon":175.97,"lat":-2.48583,"emissions":52.0},{"id":3170611,"name":"Butaritari Airport","sector":"domestic-aviation","type":"domestic","lon":172.811,"lat":3.08583,"emissions":51.9},{"id":3173162,"name":"Nikunau Airport","sector":"domestic-aviation","type":"domestic","lon":176.41,"lat":-1.31444,"emissions":50.1},{"id":3170328,"name":"Aranuka Airport","sector":"domestic-aviation","type":"domestic","lon":173.63699,"lat":0.18528,"emissions":40.8},{"id":3172464,"name":"Kuria Airport","sector":"domestic-aviation","type":"domestic","lon":173.442,"lat":0.21861,"emissions":38.9},{"id":3173092,"name":"Marakei Airport","sector":"domestic-aviation","type":"domestic","lon":173.271,"lat":2.05861,"emissions":25.8},{"id":3170343,"name":"Abaiang Airport","sector":"domestic-aviation","type":"domestic","lon":173.041,"lat":1.79861,"emissions":19.3},{"id":3172947,"name":"Maiana Airport","sector":"domestic-aviation","type":"domestic","lon":173.03101,"lat":1.00361,"emissions":18.5},{"id":2858230,"name":"English Harbour","sector":"international-shipping","type":"","lon":-159.3639,"lat":3.85389,"emissions":4.9}]}