{"iso_code":"LIE","generated_at":"2026-06-02T14:20:28-03:00","gas":"co2e_100yr","sectors":["power","fossil-fuel-operations","manufacturing","mineral-extraction","transportation"],"assets":[{"id":3599003,"name":"Schaan Commune","sector":"road-transportation","type":"","lon":9.53474,"lat":47.1677,"emissions":7345.6},{"id":3598998,"name":"Eschen Commune","sector":"road-transportation","type":"","lon":9.52469,"lat":47.21062,"emissions":5741.7},{"id":3598996,"name":"Valduz Commune","sector":"road-transportation","type":"","lon":9.52745,"lat":47.14833,"emissions":5268.0},{"id":3599005,"name":"Triesen Commune","sector":"road-transportation","type":"","lon":9.5436,"lat":47.08747,"emissions":4518.5},{"id":3598997,"name":"Balzers Commune","sector":"road-transportation","type":"","lon":9.50815,"lat":47.06854,"emissions":4209.4},{"id":3599000,"name":"Mauren Commune","sector":"road-transportation","type":"","lon":9.55346,"lat":47.215,"emissions":3484.5},{"id":3598995,"name":"Triesenberg Commune","sector":"road-transportation","type":"","lon":9.55664,"lat":47.12908,"emissions":3463.2},{"id":3598999,"name":"Gamprin Commune","sector":"road-transportation","type":"","lon":9.5086,"lat":47.21554,"emissions":3459.7},{"id":3599002,"name":"Ruggell Commune","sector":"road-transportation","type":"","lon":9.53768,"lat":47.2496,"emissions":2194.4},{"id":3599004,"name":"Schellenberg Commune","sector":"road-transportation","type":"","lon":9.55993,"lat":47.24024,"emissions":1559.7},{"id":3599001,"name":"Planken Commune","sector":"road-transportation","type":"","lon":9.55883,"lat":47.18382,"emissions":352.6}]}