{"iso_code":"LUX","generated_at":"2026-06-02T15:38:05-03:00","gas":"co2e_100yr","sectors":["power","fossil-fuel-operations","manufacturing","mineral-extraction"],"assets":[{"id":1566966,"name":"ArcelorMittal Differdange steel plant","sector":"iron-and-steel","type":"EAF","lon":5.89813,"lat":49.52772,"emissions":124302.0},{"id":38469191,"name":"Guardian Luxguard I S.À R.L.","sector":"glass","type":"Glass Manufacturing","lon":5.93644,"lat":49.56444,"emissions":116679.5},{"id":38469194,"name":"Guardian Luxguard Ii S.À R.L.","sector":"glass","type":"Glass Manufacturing","lon":6.07878,"lat":49.50467,"emissions":116679.5},{"id":1566967,"name":"ArcelorMittal Esch-Belval steel plant","sector":"iron-and-steel","type":"EAF","lon":5.99401,"lat":49.50434,"emissions":92075.6},{"id":32438878,"name":"Rumelange Cement Plant","sector":"cement","type":"integrated dry","lon":6.00655,"lat":49.46505,"emissions":17915.0}]}