{"iso_code":"MHL","generated_at":"2026-06-02T14:20:36-03:00","gas":"co2e_100yr","sectors":["power","fossil-fuel-operations","manufacturing","mineral-extraction","transportation"],"assets":[{"id":2796243,"name":"Majuro","sector":"international-shipping","type":"","lon":171.19146,"lat":7.12369,"emissions":78238.1},{"id":1932539,"name":"Majuro","sector":"domestic-shipping","type":"","lon":171.19146,"lat":7.12369,"emissions":58431.6},{"id":3167874,"name":"Marshall Islands International Airport","sector":"international-aviation","type":"international","lon":171.27166,"lat":7.06511,"emissions":15736.7},{"id":3599153,"name":"Majuro Atol","sector":"road-transportation","type":"","lon":171.26799,"lat":7.14854,"emissions":14214.8},{"id":34015752,"name":"Kwajalein","sector":"international-shipping","type":"","lon":167.73299,"lat":8.73,"emissions":10580.6},{"id":34000104,"name":"Kwajalein","sector":"domestic-shipping","type":"","lon":167.73299,"lat":8.73,"emissions":7239.4},{"id":3167583,"name":"Bucholz Army Air Field","sector":"international-aviation","type":"international","lon":167.73199,"lat":8.72012,"emissions":4380.2},{"id":3599172,"name":"Kwajalein Atol","sector":"road-transportation","type":"","lon":167.47579,"lat":9.3962,"emissions":4016.3},{"id":38889577,"name":"Unknown name","sector":"international-shipping","type":"","lon":167.7366,"lat":8.7733,"emissions":2271.0},{"id":3172780,"name":"Marshall Islands International Airport","sector":"domestic-aviation","type":"domestic","lon":171.27166,"lat":7.06511,"emissions":1987.4},{"id":3172489,"name":"Bucholz Army Air Field","sector":"domestic-aviation","type":"domestic","lon":167.73199,"lat":8.72012,"emissions":1602.3},{"id":3599166,"name":"Arno Atol","sector":"road-transportation","type":"","lon":171.85653,"lat":7.08515,"emissions":603.9},{"id":38900170,"name":"Unknown name","sector":"domestic-shipping","type":"","lon":167.7351,"lat":8.7792,"emissions":495.3},{"id":3599159,"name":"Unknown Atol","sector":"road-transportation","type":"","lon":166.48627,"lat":11.11655,"emissions":449.4},{"id":3599152,"name":"Likiep Atol","sector":"road-transportation","type":"","lon":169.01147,"lat":10.03347,"emissions":258.0},{"id":3599164,"name":"Wotje Atol","sector":"road-transportation","type":"","lon":170.15014,"lat":9.55097,"emissions":226.8},{"id":3599171,"name":"Jaluit Atol","sector":"road-transportation","type":"","lon":169.53178,"lat":6.2042,"emissions":215.6},{"id":3599160,"name":"Ailinglaplap Atol","sector":"road-transportation","type":"","lon":168.62458,"lat":7.34042,"emissions":123.1},{"id":3599169,"name":"Enewetok Atol","sector":"road-transportation","type":"","lon":162.23931,"lat":11.66306,"emissions":116.5},{"id":3599156,"name":"Mili Atol","sector":"road-transportation","type":"","lon":171.95546,"lat":6.03443,"emissions":96.5},{"id":3174814,"name":"Wotje Airport","sector":"domestic-aviation","type":"domestic","lon":170.23861,"lat":9.45833,"emissions":82.8},{"id":3172889,"name":"Mejit Atoll Airport","sector":"domestic-aviation","type":"domestic","lon":170.869,"lat":10.2833,"emissions":71.2},{"id":3172892,"name":"Majkin Airport","sector":"domestic-aviation","type":"domestic","lon":168.17386,"lat":8.16336,"emissions":70.1},{"id":3174542,"name":"Jaluit Airport","sector":"domestic-aviation","type":"domestic","lon":169.63726,"lat":5.90921,"emissions":65.4},{"id":3174601,"name":"Utirik Airport","sector":"domestic-aviation","type":"domestic","lon":169.85143,"lat":11.22222,"emissions":57.3},{"id":3170425,"name":"Ailinglaplap Airok Airport","sector":"domestic-aviation","type":"domestic","lon":168.8257,"lat":7.27942,"emissions":56.4},{"id":3174765,"name":"Woja Airport","sector":"domestic-aviation","type":"domestic","lon":168.55,"lat":7.45083,"emissions":47.2},{"id":3172247,"name":"Kaben Airport","sector":"domestic-aviation","type":"domestic","lon":170.84399,"lat":8.90056,"emissions":46.3},{"id":3172613,"name":"Likiep Airport","sector":"domestic-aviation","type":"domestic","lon":169.308,"lat":9.82316,"emissions":45.5},{"id":3170560,"name":"Aur Island Airport","sector":"domestic-aviation","type":"domestic","lon":171.173,"lat":8.14528,"emissions":41.0},{"id":3173136,"name":"Namorik Airport","sector":"domestic-aviation","type":"domestic","lon":168.12563,"lat":5.633,"emissions":38.5},{"id":3172789,"name":"Maloelap Island Airport","sector":"domestic-aviation","type":"domestic","lon":171.23,"lat":8.70444,"emissions":33.3},{"id":3174543,"name":"Ujae Atoll Airport","sector":"domestic-aviation","type":"domestic","lon":165.76199,"lat":8.92806,"emissions":31.4},{"id":3171374,"name":"Ebon Airport","sector":"domestic-aviation","type":"domestic","lon":168.752,"lat":4.5982,"emissions":29.7},{"id":3172330,"name":"Kili Airport","sector":"domestic-aviation","type":"domestic","lon":169.12459,"lat":5.64386,"emissions":28.9},{"id":3171362,"name":"Elenak Airport","sector":"domestic-aviation","type":"domestic","lon":166.84778,"lat":9.31931,"emissions":27.6},{"id":3170426,"name":"Ailuk Airport","sector":"domestic-aviation","type":"domestic","lon":169.983,"lat":10.2168,"emissions":25.7},{"id":3171405,"name":"Enejit Airport","sector":"domestic-aviation","type":"domestic","lon":171.9846,"lat":6.0404,"emissions":23.6},{"id":3172883,"name":"Mili Island Airport","sector":"domestic-aviation","type":"domestic","lon":171.73142,"lat":6.08475,"emissions":23.5},{"id":3174817,"name":"Wotho Island Airport","sector":"domestic-aviation","type":"domestic","lon":166.00301,"lat":10.1733,"emissions":23.1},{"id":3599167,"name":"Aur Atol","sector":"road-transportation","type":"","lon":171.16168,"lat":8.30719,"emissions":22.5},{"id":3172650,"name":"Lae Island Airport","sector":"domestic-aviation","type":"domestic","lon":166.265,"lat":8.92111,"emissions":20.8},{"id":3172109,"name":"Jabot Airport","sector":"domestic-aviation","type":"domestic","lon":168.97784,"lat":7.74977,"emissions":1.7},{"id":3172130,"name":"Jeh Airport","sector":"domestic-aviation","type":"domestic","lon":168.96201,"lat":7.56535,"emissions":1.7}]}