{"iso_code":"MOZ","generated_at":"2026-06-02T15:38:13-03:00","gas":"co2e_100yr","sectors":["power","fossil-fuel-operations","manufacturing","mineral-extraction"],"assets":[{"id":16152,"name":"Moatize Coal Mine","sector":"coal-mining","type":"Surface","lon":33.72073,"lat":-16.15372,"emissions":1480022.9},{"id":3673105,"name":"Maputo aluminium plant","sector":"aluminum","type":"Smelting","lon":32.40831,"lat":-25.9155,"emissions":1272344.6},{"id":53059796,"name":"Mozambique_Mozambique_Conventional onshore","sector":"oil-and-gas-transport","type":"","lon":34.96441,"lat":-21.55617,"emissions":1062847.4},{"id":42547312,"name":"Matutine Cement Plant","sector":"cement","type":"integrated dry","lon":32.65276,"lat":-26.39436,"emissions":801996.9},{"id":53058953,"name":"Mozambique_Mozambique_Conventional onshore","sector":"oil-and-gas-production","type":"","lon":34.96441,"lat":-21.55617,"emissions":790032.5},{"id":16151,"name":"Chirodzi Coal Mine","sector":"coal-mining","type":"Surface","lon":33.01319,"lat":-15.91409,"emissions":672737.7},{"id":452668,"name":"Gigawatt Mozambique power station","sector":"electricity-generation","type":"gas","lon":32.0055,"lat":-25.4617,"emissions":654840.0},{"id":25454906,"name":"Ressano Garcia power plant","sector":"electricity-generation","type":"gas","lon":32.0062,"lat":-25.4665,"emissions":328340.0},{"id":3673104,"name":"Boane District","sector":"aluminum","type":"Refinery","lon":32.35428,"lat":-26.02851,"emissions":189003.3},{"id":452453,"name":"Maputo power station","sector":"electricity-generation","type":"other_fossil, gas","lon":32.5301,"lat":-25.9393,"emissions":114201.0},{"id":42546764,"name":"Cimentos de Maiaia Nacala Cement Plant","sector":"cement","type":"integrated dry","lon":40.66539,"lat":-14.58098,"emissions":100249.6},{"id":42546763,"name":"Huaxin Nacala Cement Plant","sector":"cement","type":"integrated dry","lon":40.67723,"lat":-14.52023,"emissions":92229.6},{"id":16150,"name":"Benga Coal Mine","sector":"coal-mining","type":"Surface","lon":33.66102,"lat":-16.16743,"emissions":54874.6},{"id":452213,"name":"Karpowership (Mozambique) Mehmet Bey power station","sector":"electricity-generation","type":"oil, other_fossil","lon":40.6662,"lat":-14.5546,"emissions":39389.0},{"id":25451018,"name":"Cahora Bassa","sector":"electricity-generation","type":"oil","lon":32.7047,"lat":-15.5859,"emissions":4156.4},{"id":42233279,"name":"Vila de Manica Mine","sector":"bauxite-mining","type":"bauxite-mine","lon":32.73339,"lat":-18.82804,"emissions":127.0}]}