{"iso_code":"MSR","generated_at":"2026-06-02T14:20:41-03:00","gas":"co2e_100yr","sectors":["power","fossil-fuel-operations","manufacturing","mineral-extraction","transportation"],"assets":[{"id":3599356,"name":"Saint Peter Parish","sector":"road-transportation","type":"","lon":-62.1985,"lat":16.77722,"emissions":12001.7},{"id":2796270,"name":"Little Bay","sector":"international-shipping","type":"","lon":-62.20527,"lat":16.80194,"emissions":2498.6},{"id":1932576,"name":"Little Bay","sector":"domestic-shipping","type":"","lon":-62.20527,"lat":16.80194,"emissions":2413.9},{"id":3599354,"name":"Saint Anthon Parish","sector":"road-transportation","type":"","lon":-62.18583,"lat":16.70611,"emissions":1860.9},{"id":2799318,"name":"Plymouth","sector":"international-shipping","type":"","lon":-62.22166,"lat":16.70333,"emissions":363.7},{"id":1973060,"name":"Plymouth","sector":"domestic-shipping","type":"","lon":-62.22166,"lat":16.70333,"emissions":273.2},{"id":3599355,"name":"Saint Georges Parish","sector":"road-transportation","type":"","lon":-62.17307,"lat":16.74724,"emissions":154.2},{"id":3168040,"name":"John A. Osborne Airport","sector":"international-aviation","type":"international","lon":-62.1932,"lat":16.79183,"emissions":37.3}]}