{"iso_code":"NRU","generated_at":"2026-06-02T14:20:48-03:00","gas":"co2e_100yr","sectors":["power","fossil-fuel-operations","manufacturing","mineral-extraction","transportation"],"assets":[{"id":3167112,"name":"Nauru International Airport","sector":"international-aviation","type":"international","lon":166.91952,"lat":-0.54789,"emissions":10383.6},{"id":2796654,"name":"Nauru","sector":"international-shipping","type":"","lon":166.93442,"lat":-0.52763,"emissions":5251.0},{"id":3599557,"name":"Aiwo District","sector":"road-transportation","type":"","lon":166.91327,"lat":-0.53437,"emissions":1039.7},{"id":3599553,"name":"Meneng District","sector":"road-transportation","type":"","lon":166.94003,"lat":-0.54524,"emissions":958.5},{"id":3599556,"name":"Yaren District","sector":"road-transportation","type":"","lon":166.9227,"lat":-0.54721,"emissions":882.4},{"id":3599564,"name":"Denigomodu District","sector":"road-transportation","type":"","lon":166.91661,"lat":-0.52438,"emissions":780.2},{"id":3599560,"name":"Anibare District","sector":"road-transportation","type":"","lon":166.9442,"lat":-0.53091,"emissions":586.2},{"id":3599554,"name":"Nibok District","sector":"road-transportation","type":"","lon":166.92632,"lat":-0.52191,"emissions":461.6},{"id":3599558,"name":"Anabar District","sector":"road-transportation","type":"","lon":166.95143,"lat":-0.51282,"emissions":390.1},{"id":3599562,"name":"Boe District","sector":"road-transportation","type":"","lon":166.91671,"lat":-0.54283,"emissions":383.3},{"id":3599563,"name":"Buada District","sector":"road-transportation","type":"","lon":166.92652,"lat":-0.53456,"emissions":361.1},{"id":3599565,"name":"Ewa District","sector":"road-transportation","type":"","lon":166.93765,"lat":-0.51085,"emissions":357.8},{"id":1933368,"name":"Nauru","sector":"domestic-shipping","type":"","lon":166.93442,"lat":-0.52763,"emissions":327.0},{"id":3599561,"name":"Baiti District","sector":"road-transportation","type":"","lon":166.93243,"lat":-0.51471,"emissions":326.4},{"id":3599559,"name":"Anetan District","sector":"road-transportation","type":"","lon":166.9432,"lat":-0.51008,"emissions":303.1},{"id":3599552,"name":"Ijuw District","sector":"road-transportation","type":"","lon":166.95235,"lat":-0.5181,"emissions":238.6},{"id":3599555,"name":"Uaboe District","sector":"road-transportation","type":"","lon":166.93093,"lat":-0.51959,"emissions":226.4}]}