{"iso_code":"NZL","generated_at":"2026-06-02T15:38:21-03:00","gas":"co2e_100yr","sectors":["power","fossil-fuel-operations","manufacturing","mineral-extraction"],"assets":[{"id":53058960,"name":"New Zealand_Taranaki_Conventional onshore","sector":"oil-and-gas-production","type":"","lon":174.28323,"lat":-39.27096,"emissions":870072.0},{"id":32440923,"name":"BlueScope New Zealand Steel Glenbrook","sector":"iron-and-steel","type":"BOF","lon":174.72732,"lat":-37.2075,"emissions":814187.1},{"id":25452354,"name":"Stratford power station","sector":"electricity-generation","type":"gas","lon":174.3197,"lat":-39.3305,"emissions":713760.0},{"id":3673115,"name":"Tiwai Point aluminium plant","sector":"aluminum","type":"Smelting","lon":168.38558,"lat":-46.58861,"emissions":707542.5},{"id":447915,"name":"Huntly power station","sector":"electricity-generation","type":"gas, other_fossil, coal","lon":175.1488,"lat":-37.5445,"emissions":594430.0},{"id":45257144,"name":"Motunui Methanol Complex","sector":"chemicals","type":"methanol","lon":174.2818,"lat":-38.99164,"emissions":500625.0},{"id":1897602,"name":"Portland Cement Plant","sector":"cement","type":"integrated dry","lon":174.33281,"lat":-35.80698,"emissions":371743.8},{"id":53059803,"name":"New Zealand_Taranaki_Conventional onshore","sector":"oil-and-gas-transport","type":"","lon":174.28323,"lat":-39.27096,"emissions":250572.8},{"id":447515,"name":"Glenbrook power station","sector":"electricity-generation","type":"gas, other_fossil","lon":174.7245,"lat":-37.2065,"emissions":189490.0},{"id":450503,"name":"Whirinaki","sector":"electricity-generation","type":"oil","lon":176.8875,"lat":-39.3829,"emissions":176510.0},{"id":25455561,"name":"Junction Road power station","sector":"electricity-generation","type":"gas","lon":174.1036,"lat":-39.1168,"emissions":148930.0},{"id":25454300,"name":"McKee power station","sector":"electricity-generation","type":"gas","lon":174.336,"lat":-39.0976,"emissions":148930.0},{"id":44375617,"name":"Oji Fibre Solutions (NZ) Ltd - Kinleith Mill","sector":"pulp-and-paper","type":"Pulp misc.","lon":175.86744,"lat":-38.21942,"emissions":143212.3},{"id":44375615,"name":"Oji Fibre Solutions (NZ) Ltd - Tasman Mill","sector":"pulp-and-paper","type":"Pulp misc.","lon":176.71717,"lat":-38.07422,"emissions":134825.0},{"id":16158,"name":"Stockton Coal Mine","sector":"coal-mining","type":"Surface","lon":171.87228,"lat":-41.66887,"emissions":133202.1},{"id":44375616,"name":"WPI Winstone Pulp International Ltd - Karioi Pulpmill Pulp Mill","sector":"pulp-and-paper","type":"Mechanical wood pulp; Semi-chemical wood pulp","lon":175.56748,"lat":-39.46422,"emissions":118893.3},{"id":448421,"name":"Whareroa power station","sector":"electricity-generation","type":"gas, oil","lon":174.2986,"lat":-39.6099,"emissions":92740.0},{"id":25454626,"name":"Te Rapa","sector":"electricity-generation","type":"gas","lon":175.2168,"lat":-37.7165,"emissions":46805.0},{"id":3164227,"name":"Echo Coal Mine","sector":"coal-mining","type":"Surface","lon":171.95727,"lat":-42.16433,"emissions":21527.6},{"id":3164230,"name":"Rajah Coal Mine","sector":"coal-mining","type":"Surface","lon":171.60534,"lat":-42.22201,"emissions":16145.7},{"id":16155,"name":"Awaroa Coal Mine","sector":"coal-mining","type":"Surface","lon":175.07433,"lat":-37.59431,"emissions":15046.3},{"id":38472355,"name":"New Zealand Sock Company","sector":"textiles-leather-apparel","type":"Finished Goods","lon":171.7413,"lat":-43.90369,"emissions":11485.8},{"id":38471734,"name":"Youngone Nam Dinh Dtv Operations","sector":"textiles-leather-apparel","type":"Fabric Mill","lon":174.8765,"lat":-36.95945,"emissions":11485.8},{"id":38472353,"name":"New Zealand Gloves Ltd","sector":"textiles-leather-apparel","type":"Finished Goods","lon":174.90257,"lat":-37.18385,"emissions":11485.8},{"id":3164234,"name":"Takitimu Coal Mine","sector":"coal-mining","type":"Surface","lon":168.03026,"lat":-45.96216,"emissions":10178.4},{"id":16157,"name":"Kopuku Coal Mine","sector":"coal-mining","type":"Surface","lon":175.20094,"lat":-37.28092,"emissions":8850.7},{"id":16156,"name":"Giles Creek Coal Mine","sector":"coal-mining","type":"Surface","lon":171.79902,"lat":-42.0368,"emissions":7523.1},{"id":3164233,"name":"Strongman Coal Mine","sector":"coal-mining","type":"Surface","lon":171.30323,"lat":-42.34231,"emissions":5381.9},{"id":3164231,"name":"Reefton Operations Coal Mine","sector":"coal-mining","type":"Surface","lon":171.89103,"lat":-42.09821,"emissions":2212.7},{"id":43162011,"name":"Wairaki Coal Mine","sector":"coal-mining","type":"Surface","lon":168.75488,"lat":-46.14843,"emissions":885.1},{"id":3164226,"name":"Berlins Creek Coal Mine","sector":"coal-mining","type":"Surface","lon":171.84727,"lat":-41.87922,"emissions":265.5},{"id":43160550,"name":"Escarpment Coal Mine","sector":"coal-mining","type":"Surface","lon":171.7799,"lat":-41.77566,"emissions":134.5},{"id":708869,"name":"Charleston Coal Mine","sector":"coal-mining","type":"Surface","lon":171.43284,"lat":-41.91429,"emissions":4.4}]}