{"iso_code":"PAK","generated_at":"2026-06-02T15:38:22-03:00","gas":"co2e_100yr","sectors":["power","fossil-fuel-operations","manufacturing","mineral-extraction"],"assets":[{"id":53059003,"name":"Pakistan_Indus_Conventional onshore","sector":"oil-and-gas-production","type":"","lon":68.78385,"lat":26.71249,"emissions":13780042.5},{"id":6569,"name":"Thar Block I power station","sector":"electricity-generation","type":"coal","lon":70.3025,"lat":24.7108,"emissions":10421900.0},{"id":25455585,"name":"Hubco power station","sector":"electricity-generation","type":"coal","lon":66.6888,"lat":24.9147,"emissions":10313600.0},{"id":25455252,"name":"Sahiwal power station","sector":"electricity-generation","type":"coal","lon":73.238,"lat":30.7142,"emissions":9458400.0},{"id":25455303,"name":"Port Qasim EPC power station","sector":"electricity-generation","type":"coal","lon":67.3694,"lat":24.7845,"emissions":7166500.0},{"id":53059006,"name":"Pakistan_Sulaiman Foldbelt_Conventional onshore","sector":"oil-and-gas-production","type":"","lon":69.66275,"lat":29.60129,"emissions":6881206.2},{"id":1897625,"name":"Lucky Cement Pezu Cement Plant","sector":"cement","type":"integrated dry","lon":70.73683,"lat":32.29211,"emissions":5508813.2},{"id":45257122,"name":"Khairpur (Daharki) Fertilizer Complex","sector":"chemicals","type":"ammonia","lon":69.69068,"lat":28.04742,"emissions":5402182.1},{"id":25455608,"name":"Port Qasim Lucky power station","sector":"electricity-generation","type":"coal","lon":67.2746,"lat":24.8128,"emissions":5156900.0},{"id":25455259,"name":"Thar Block II power station","sector":"electricity-generation","type":"coal","lon":70.3941,"lat":24.8125,"emissions":5156900.0},{"id":715146,"name":"Bin Qasim power station","sector":"electricity-generation","type":"gas, other_fossil, oil","lon":67.3603,"lat":24.7849,"emissions":4448400.0},{"id":53059005,"name":"Pakistan_Kohat - Potwar Foldbelt_Conventional onshore","sector":"oil-and-gas-production","type":"","lon":72.28262,"lat":33.22985,"emissions":3561881.3},{"id":25452477,"name":"Guddu power station","sector":"electricity-generation","type":"oil, gas, other_fossil","lon":69.7009,"lat":28.4249,"emissions":3170700.0},{"id":449679,"name":"KAPCO power station","sector":"electricity-generation","type":"gas, other_fossil, oil","lon":70.9823,"lat":30.4458,"emissions":2769100.0},{"id":53059846,"name":"Pakistan_Indus_Conventional onshore","sector":"oil-and-gas-transport","type":"","lon":68.78385,"lat":26.71249,"emissions":2629220.7},{"id":719583,"name":"Thar Energy Limited power station","sector":"electricity-generation","type":"coal","lon":70.4005,"lat":24.8062,"emissions":2578500.0},{"id":25455597,"name":"ThalNova power station","sector":"electricity-generation","type":"coal","lon":70.392,"lat":24.8162,"emissions":2578500.0},{"id":448261,"name":"Hub power plant","sector":"electricity-generation","type":"oil","lon":66.6944,"lat":24.9063,"emissions":2472200.0},{"id":1897624,"name":"Maple Leaf Iskandarabad (White) Cement Plant","sector":"cement","type":"integrated dry","lon":71.5896,"lat":32.90806,"emissions":2348492.3},{"id":1897628,"name":"Attock Cement Hub Cement Plant","sector":"cement","type":"integrated dry","lon":66.91376,"lat":25.13884,"emissions":2249783.4},{"id":1897622,"name":"Cherat Cement Lakari Cement Plant","sector":"cement","type":"integrated dry","lon":71.91261,"lat":33.90555,"emissions":2174366.6},{"id":452588,"name":"Bhikki power station","sector":"electricity-generation","type":"other_fossil, gas","lon":73.9046,"lat":31.6037,"emissions":2165700.0},{"id":452587,"name":"Balloki power station","sector":"electricity-generation","type":"other_fossil, gas","lon":73.9267,"lat":31.037,"emissions":2165700.0},{"id":452589,"name":"Haveli Bahadur Shah (HBS) power station","sector":"electricity-generation","type":"other_fossil, gas","lon":72.1913,"lat":31.1262,"emissions":2165700.0},{"id":1897606,"name":"Fauji Cement Nizampur Cement Plant","sector":"cement","type":"integrated dry","lon":72.09547,"lat":33.80184,"emissions":2063501.6},{"id":45257145,"name":"Multan Fertilizers Complex","sector":"chemicals","type":"ammonia","lon":71.54087,"lat":30.21457,"emissions":2005678.6},{"id":25452483,"name":"Muzaffargarh power station","sector":"electricity-generation","type":"gas","lon":71.1639,"lat":30.1056,"emissions":1969800.0},{"id":1897626,"name":"Lucky Cement Karachi Cement Plant","sector":"cement","type":"integrated dry","lon":67.49283,"lat":25.05209,"emissions":1957265.6},{"id":1897608,"name":"Bestway Cement Chakwal Cement Plant","sector":"cement","type":"integrated dry","lon":72.92698,"lat":32.72177,"emissions":1902875.6},{"id":449678,"name":"Jamshoro power station","sector":"electricity-generation","type":"gas, oil, coal","lon":68.2661,"lat":25.4722,"emissions":1902300.0},{"id":449585,"name":"Uch power station","sector":"electricity-generation","type":"gas, other_fossil","lon":68.1762,"lat":28.5827,"emissions":1902200.0},{"id":1897610,"name":"Bestway Cement Hattar Cement Plant","sector":"cement","type":"integrated dry","lon":72.87028,"lat":33.84865,"emissions":1894035.4},{"id":1897630,"name":"Power Cement Jamshoro Cement Plant","sector":"cement","type":"integrated dry","lon":67.70356,"lat":25.15779,"emissions":1783636.0},{"id":1897609,"name":"Bestway Cement Farooqia Cement Plant","sector":"cement","type":"integrated dry","lon":72.83103,"lat":33.82942,"emissions":1615534.4},{"id":1897618,"name":"Fauji Cement Jhang Bhatar Cement Plant","sector":"cement","type":"integrated dry","lon":72.71237,"lat":33.69035,"emissions":1558286.7},{"id":1897623,"name":"Kohat Cement Togh Bala Cement Plant","sector":"cement","type":"integrated dry","lon":71.54937,"lat":33.54796,"emissions":1547845.5},{"id":45257173,"name":"Sadiqabad (Goth Machhi) Fertilizer Complex II","sector":"chemicals","type":"ammonia","lon":70.06775,"lat":28.27522,"emissions":1504555.1},{"id":452833,"name":"Fauji Fertilizer power station","sector":"electricity-generation","type":"coal","lon":67.4193,"lat":24.8338,"emissions":1375180.0},{"id":447382,"name":"Lalpir Power Limited power station","sector":"electricity-generation","type":"oil","lon":70.9929,"lat":30.1726,"emissions":1322050.0},{"id":25453732,"name":"PSM WORKS","sector":"electricity-generation","type":"coal","lon":67.3483,"lat":24.815,"emissions":1289280.0},{"id":1897629,"name":"Pioneer Cement Khushab Cement Plant","sector":"cement","type":"integrated dry","lon":72.14267,"lat":32.38842,"emissions":1276499.0},{"id":1897614,"name":"D G Khan Cement Hub Las Bela Cement Plant","sector":"cement","type":"integrated dry","lon":66.78247,"lat":25.15801,"emissions":1273140.1},{"id":452892,"name":"Trimmu power station","sector":"electricity-generation","type":"other_fossil, gas","lon":72.1876,"lat":31.1132,"emissions":1201320.0},{"id":42741841,"name":"Amreli Steels Dhabeji plant","sector":"iron-and-steel","type":"BF/BOF","lon":67.50511,"lat":24.80048,"emissions":1199270.8},{"id":42741806,"name":"Mughal Iron & Steel Industries Lahore plant","sector":"iron-and-steel","type":"BF/BOF","lon":74.18045,"lat":31.65255,"emissions":1165291.5},{"id":32438980,"name":"D G Khan Cement Dera Ghazi Khan Cement Plant","sector":"cement","type":"integrated dry","lon":70.53829,"lat":30.32758,"emissions":1059620.4},{"id":42547305,"name":"Bestway Cement Mianwali Cement Plant","sector":"cement","type":"integrated dry","lon":71.60152,"lat":32.82804,"emissions":1031064.2},{"id":1897621,"name":"Gharibwal Cement Ismailwal Cement Plant","sector":"cement","type":"integrated dry","lon":73.14323,"lat":32.72584,"emissions":967438.4},{"id":45257129,"name":"Lahore (Sheikhupura) Fertilizer Complex","sector":"chemicals","type":"ammonia","lon":74.08303,"lat":31.6884,"emissions":957584.2},{"id":448134,"name":"Muzaffargarh sugar mill power station","sector":"electricity-generation","type":"biomass, coal","lon":70.967,"lat":30.2946,"emissions":937640.0},{"id":42546810,"name":"Bestway Cement Kallar Kahar Cement Plant","sector":"cement","type":"integrated dry","lon":72.77642,"lat":32.71712,"emissions":894231.7},{"id":451266,"name":"Nandipur power station","sector":"electricity-generation","type":"other_fossil, gas","lon":74.2691,"lat":32.2421,"emissions":831040.0},{"id":449129,"name":"Rousch power station","sector":"electricity-generation","type":"gas, other_fossil","lon":72.1396,"lat":30.5686,"emissions":804280.0},{"id":1567001,"name":"Ittehad Steel Faisalabad plant","sector":"iron-and-steel","type":"BF/BOF","lon":73.19854,"lat":31.64343,"emissions":799513.9},{"id":42547437,"name":"Fauji Cement DG Khan Cement Plant","sector":"cement","type":"integrated dry","lon":70.56889,"lat":30.44213,"emissions":794533.6},{"id":43163652,"name":"Thar Block II Coal Mine","sector":"coal-mining","type":"Surface","lon":70.39244,"lat":24.77481,"emissions":742984.9},{"id":42741854,"name":"Faizan Steel Karachi steel plant","sector":"iron-and-steel","type":"BF/BOF","lon":66.98585,"lat":24.89712,"emissions":729556.4},{"id":53059849,"name":"Pakistan_Sulaiman Foldbelt_Conventional onshore","sector":"oil-and-gas-transport","type":"","lon":69.66275,"lat":29.60129,"emissions":718749.0},{"id":1897616,"name":"Dewan Cement Kamilpur Cement Plant","sector":"cement","type":"integrated dry","lon":72.86304,"lat":33.85597,"emissions":640850.8},{"id":1897613,"name":"D G Khan Cement Khaipur Cement Plant","sector":"cement","type":"integrated dry","lon":72.81723,"lat":32.72601,"emissions":608892.6},{"id":1897620,"name":"Flying Cement Khushab Cement Plant","sector":"cement","type":"integrated dry","lon":72.56396,"lat":32.57483,"emissions":607217.0},{"id":1753949,"name":"Cnergyico Oil Refinery","sector":"oil-and-gas-refining","type":"Hydroskimming","lon":66.70737,"lat":24.91642,"emissions":551529.3},{"id":1897617,"name":"Dewan Cement Karachi Cement Plant","sector":"cement","type":"integrated dry","lon":67.47482,"lat":24.90886,"emissions":491104.3},{"id":451236,"name":"Engro power station","sector":"electricity-generation","type":"gas, other_fossil","lon":69.3649,"lat":28.0261,"emissions":481850.0},{"id":449676,"name":"SPS Faisalabad power station","sector":"electricity-generation","type":"gas, other_fossil","lon":73.1359,"lat":31.445,"emissions":476850.0},{"id":25455809,"name":"Dera Ghazi Khan Cement power station","sector":"electricity-generation","type":"coal","lon":66.7836,"lat":25.1559,"emissions":468810.0},{"id":32438976,"name":"Fauji Cement Wah Cement Plant","sector":"cement","type":"integrated dry","lon":72.72208,"lat":33.81687,"emissions":460384.6},{"id":448386,"name":"Korangi Town power station","sector":"electricity-generation","type":"gas","lon":67.1455,"lat":24.8488,"emissions":458140.0},{"id":451011,"name":"Atlas Power Limited power station","sector":"electricity-generation","type":"oil, other_fossil","lon":74.0838,"lat":31.6784,"emissions":455190.0},{"id":453101,"name":"Liberty power station","sector":"electricity-generation","type":"gas, other_fossil","lon":69.6369,"lat":28.0321,"emissions":453600.0},{"id":32438999,"name":"Rohri Cement RCW Rohri Cement Plant","sector":"cement","type":"integrated dry","lon":68.89195,"lat":27.67052,"emissions":440694.2},{"id":450748,"name":"Attock Gen Limited power station (AGL)","sector":"electricity-generation","type":"oil, other_fossil","lon":73.073,"lat":33.5562,"emissions":436410.0},{"id":450996,"name":"Orient power station","sector":"electricity-generation","type":"gas, other_fossil","lon":73.8899,"lat":31.1884,"emissions":433580.0},{"id":451109,"name":"Narowal power plant","sector":"electricity-generation","type":"oil, other_fossil","lon":74.7813,"lat":32.059,"emissions":433220.0},{"id":1897619,"name":"Fecto Cement Islamabad Cement Plant","sector":"cement","type":"integrated dry","lon":72.85943,"lat":33.69395,"emissions":428307.5},{"id":450943,"name":"Saif power station","sector":"electricity-generation","type":"gas, other_fossil","lon":73.2594,"lat":30.6962,"emissions":427280.0},{"id":450438,"name":"Halmore power station","sector":"electricity-generation","type":"gas, other_fossil","lon":73.8704,"lat":31.6335,"emissions":426640.0},{"id":3144046,"name":"PARCO Mid Country (Kot Addu) Refinery","sector":"oil-and-gas-refining","type":"Hydroskimming","lon":70.93214,"lat":30.16778,"emissions":424253.3},{"id":450942,"name":"Sapphire Electric power station","sector":"electricity-generation","type":"gas, other_fossil","lon":74.0355,"lat":31.761,"emissions":422680.0},{"id":450507,"name":"Foundation power station","sector":"electricity-generation","type":"gas, other_fossil","lon":69.6736,"lat":27.9805,"emissions":401200.0}]}