{"iso_code":"PRI","generated_at":"2026-06-02T15:38:25-03:00","gas":"co2e_100yr","sectors":["power","fossil-fuel-operations","manufacturing","mineral-extraction"],"assets":[{"id":4400224,"name":"AES Puerto Rico power station","sector":"electricity-generation","type":"coal","lon":-66.154,"lat":17.9477,"emissions":3852000.0},{"id":4400558,"name":"AGUIRRE","sector":"electricity-generation","type":"oil, other_fossil","lon":-66.234,"lat":17.9492,"emissions":2985200.0},{"id":4400560,"name":"Costa Sur power station","sector":"electricity-generation","type":"gas, oil","lon":-66.7541,"lat":18.0009,"emissions":2580700.0},{"id":4400562,"name":"Palo Seco power station","sector":"electricity-generation","type":"oil, gas","lon":-66.1486,"lat":18.4557,"emissions":1876200.0},{"id":4400563,"name":"San Juan (PR) power station","sector":"electricity-generation","type":"oil, other_fossil","lon":-66.105,"lat":18.4277,"emissions":1616400.0},{"id":4400349,"name":"EcoElectrica power station","sector":"electricity-generation","type":"gas, other_fossil","lon":-66.7554,"lat":17.981,"emissions":1057390.0},{"id":4400559,"name":"Cambalache power station","sector":"electricity-generation","type":"oil","lon":-66.6998,"lat":18.4708,"emissions":493960.0},{"id":4400561,"name":"Mayaguez power station","sector":"electricity-generation","type":"oil","lon":-67.1592,"lat":18.2186,"emissions":441780.0},{"id":32439035,"name":"Dorado Cement Plant","sector":"cement","type":"integrated dry","lon":-66.29738,"lat":18.39443,"emissions":239601.3},{"id":38750794,"name":"Daguao","sector":"electricity-generation","type":"oil","lon":-65.6677,"lat":18.2325,"emissions":80320.0},{"id":38750800,"name":"Yabucoa","sector":"electricity-generation","type":"oil","lon":-65.8249,"lat":18.1064,"emissions":80320.0},{"id":38750799,"name":"Vega Baja","sector":"electricity-generation","type":"oil","lon":-66.3914,"lat":18.4458,"emissions":80320.0},{"id":38750795,"name":"Jobos","sector":"electricity-generation","type":"oil","lon":-66.1402,"lat":17.9615,"emissions":80320.0},{"id":3674389,"name":"ABBVIE LTD.","sector":"other-chemicals","type":"other_chemicals","lon":-66.57051,"lat":18.43324,"emissions":61960.4},{"id":3674421,"name":"AMGEN MANUFACTURING, LIMITED","sector":"other-chemicals","type":"other_chemicals","lon":-65.90443,"lat":18.23579,"emissions":41579.7},{"id":38492046,"name":"Savorcrafters Llc","sector":"food-beverage-tobacco","type":"Meat Processing| Poultry Processing","lon":-66.56595,"lat":18.36331,"emissions":41471.7},{"id":38481814,"name":"Rovira Biscuits Corporation","sector":"food-beverage-tobacco","type":"Meat Processing","lon":-66.60871,"lat":18.00522,"emissions":41471.7},{"id":38484165,"name":"Century Packing Corp.","sector":"food-beverage-tobacco","type":"Meat Processing| Poultry Processing","lon":-65.88023,"lat":18.18871,"emissions":41471.7},{"id":38484269,"name":"Chicharrones Pacheco","sector":"food-beverage-tobacco","type":"Meat Processing","lon":-66.13935,"lat":18.36886,"emissions":41471.7},{"id":38484712,"name":"Coqui Meats Llc","sector":"food-beverage-tobacco","type":"Meat Processing| Poultry Processing","lon":-66.19441,"lat":18.27566,"emissions":41471.7},{"id":38485748,"name":"Elaboracion Felo, Inc.","sector":"food-beverage-tobacco","type":"Meat Processing| Poultry Processing","lon":-67.15565,"lat":18.4202,"emissions":41471.7},{"id":38485785,"name":"Empacadora Y Procesadora Del Sur, Inc.","sector":"food-beverage-tobacco","type":"Meat Processing | Meat Processed From Carcasses","lon":-66.35573,"lat":18.10334,"emissions":41471.7},{"id":38486025,"name":"Eurocaribe Packing Company, Inc.","sector":"food-beverage-tobacco","type":"Meat Processing| Poultry Processing","lon":-66.38867,"lat":18.45161,"emissions":41471.7},{"id":38486337,"name":"Ganaderos Borges Inc.","sector":"food-beverage-tobacco","type":"Meat Processing| Meat Slaughter| Poultry Processing| Poultry Slaughter","lon":-65.74157,"lat":18.21228,"emissions":41471.7},{"id":38488933,"name":"Los Cidrines.","sector":"food-beverage-tobacco","type":"Meat Processing| Poultry Processing","lon":-66.74504,"lat":18.45928,"emissions":41471.7},{"id":38489009,"name":"Manhattan Packing, Inc.","sector":"food-beverage-tobacco","type":"Meat Processing| Poultry Processing","lon":-66.59863,"lat":18.01585,"emissions":41471.7},{"id":38491093,"name":"Productos El Jibarito","sector":"food-beverage-tobacco","type":"Meat Processing| Poultry Processing","lon":-66.38875,"lat":18.30824,"emissions":41471.7},{"id":38491095,"name":"Productos La Finca Inc.","sector":"food-beverage-tobacco","type":"Meat Processing","lon":-66.95859,"lat":18.07015,"emissions":41471.7},{"id":38491464,"name":"Rico Pastel, Llc","sector":"food-beverage-tobacco","type":"Meat Processing| Poultry Processing","lon":-66.28214,"lat":18.15597,"emissions":41471.7},{"id":38492523,"name":"Smart Food Systems, Llc","sector":"food-beverage-tobacco","type":"Poultry Processing","lon":-66.8827,"lat":18.46828,"emissions":41471.7},{"id":38492531,"name":"Sucesion Jorge Morales Cruz Dba Macelo Guaynabo","sector":"food-beverage-tobacco","type":"Meat Processing| Meat Slaughter| Poultry Processing","lon":-66.10781,"lat":18.32548,"emissions":41471.7},{"id":38492960,"name":"Tai Hay Farm Llc","sector":"food-beverage-tobacco","type":"Meat Processing","lon":-67.05948,"lat":18.04331,"emissions":41471.7},{"id":38485479,"name":"El Churry, Inc","sector":"food-beverage-tobacco","type":"Meat Processing| Poultry Processing","lon":-66.07854,"lat":18.34694,"emissions":41471.7},{"id":38491091,"name":"Productos Dany Inc.","sector":"food-beverage-tobacco","type":"Meat Processing| Poultry Processing","lon":-66.79858,"lat":18.37375,"emissions":41471.7},{"id":38494049,"name":"Trafon Group, Inc.","sector":"food-beverage-tobacco","type":"Meat Processing| Poultry Processing","lon":-66.10081,"lat":18.42786,"emissions":41471.7},{"id":38491094,"name":"Productos La Aguadillana, Inc.","sector":"food-beverage-tobacco","type":"Meat Processing| Poultry Processing","lon":-67.14842,"lat":18.46094,"emissions":41471.7},{"id":38486789,"name":"Goya De Puerto Rico, Inc.","sector":"food-beverage-tobacco","type":"Meat Processing| Poultry Processing","lon":-66.14418,"lat":18.413,"emissions":41471.7},{"id":38492127,"name":"Segarra'S Sausage","sector":"food-beverage-tobacco","type":"Meat Processing| Poultry Processing","lon":-67.06572,"lat":18.36452,"emissions":41471.7},{"id":38491148,"name":"Provimi De Puerto Rico, Inc.","sector":"food-beverage-tobacco","type":"Meat Processing| Meat Slaughter| Poultry Processing","lon":-66.42516,"lat":18.33837,"emissions":41471.7},{"id":38487137,"name":"Grupo Alimantaria Llc","sector":"food-beverage-tobacco","type":"Cheese Manufacturing","lon":-66.0694,"lat":18.44537,"emissions":41471.7},{"id":38482434,"name":"American Butchers, Inc.","sector":"food-beverage-tobacco","type":"Meat Processing| Poultry Processing","lon":-66.10092,"lat":18.40802,"emissions":41471.7},{"id":38483845,"name":"Caribbean Snacks & More","sector":"food-beverage-tobacco","type":"Meat Processing","lon":-65.73806,"lat":18.21167,"emissions":41471.7},{"id":38485686,"name":"El Pastelillo Feliz","sector":"food-beverage-tobacco","type":"Poultry Processing","lon":-66.10182,"lat":18.39641,"emissions":41471.7},{"id":38487264,"name":"Hacienda Central, Inc.","sector":"food-beverage-tobacco","type":"Meat Processing| Poultry Processing","lon":-65.91389,"lat":18.17441,"emissions":41471.7},{"id":38484141,"name":"Central Meat Processors, Inc.","sector":"food-beverage-tobacco","type":"Meat Processing| Poultry Processing","lon":-66.14061,"lat":18.11882,"emissions":41471.7},{"id":38484157,"name":"Century Frozen Foods Canovanas","sector":"food-beverage-tobacco","type":"Meat Processing| Poultry Processing","lon":-65.9004,"lat":18.37224,"emissions":41471.7},{"id":38487308,"name":"Hermanos Santiago Cash & Carry","sector":"food-beverage-tobacco","type":"Meat Processing| Poultry Processing","lon":-66.58444,"lat":18.04231,"emissions":41471.7},{"id":38487536,"name":"Holsum De Puerto Rico Inc","sector":"food-beverage-tobacco","type":"Poultry Processing","lon":-66.24004,"lat":18.41126,"emissions":41471.7},{"id":38484166,"name":"Century Titan, Llc","sector":"food-beverage-tobacco","type":"Meat Processing| Poultry Processing","lon":-66.14316,"lat":18.43295,"emissions":41471.7},{"id":38487739,"name":"Jack Packaging, Inc.","sector":"food-beverage-tobacco","type":"Meat Processing","lon":-66.47892,"lat":18.33575,"emissions":41471.7},{"id":38487989,"name":"Jrg Meat Processing Plant","sector":"food-beverage-tobacco","type":"Meat Processing| Poultry Processing","lon":-66.26194,"lat":18.11501,"emissions":41471.7},{"id":38485338,"name":"Despieces La Ceba, Llc","sector":"food-beverage-tobacco","type":"Meat Processing| Poultry Processing","lon":-66.14854,"lat":18.43049,"emissions":41471.7},{"id":38488088,"name":"Jm Packing","sector":"food-beverage-tobacco","type":"Meat Processing| Poultry Processing","lon":-66.63127,"lat":18.01105,"emissions":41471.7},{"id":38486335,"name":"Ganaderia Santiago Inc.","sector":"food-beverage-tobacco","type":"Meat Processing| Meat Slaughter| Poultry Processing","lon":-66.88389,"lat":18.02545,"emissions":41471.7},{"id":38485735,"name":"Embutidos Vallecrespo","sector":"food-beverage-tobacco","type":"Meat Processing| Poultry Processing","lon":-66.79837,"lat":18.41398,"emissions":41471.7},{"id":38492708,"name":"Sun Boricua","sector":"food-beverage-tobacco","type":"Meat Processing| Poultry Processing","lon":-66.84399,"lat":18.37854,"emissions":41471.7},{"id":38488941,"name":"Los Pasteles De La Abuela","sector":"food-beverage-tobacco","type":"Meat Processing| Poultry Processing","lon":-66.18167,"lat":17.95221,"emissions":41471.7},{"id":38485374,"name":"Dockside Seafood","sector":"food-beverage-tobacco","type":"Meat Processing| Poultry Processing","lon":-66.10054,"lat":18.41337,"emissions":41471.7},{"id":38489148,"name":"Macelo Caso Coop","sector":"food-beverage-tobacco","type":"Meat Processing| Meat Slaughter| Poultry Processing| Poultry Slaughter","lon":-67.09483,"lat":18.03011,"emissions":41471.7},{"id":38489149,"name":"Macelo Central S.E. Inc.","sector":"food-beverage-tobacco","type":"Meat Processing| Meat Slaughter","lon":-66.31499,"lat":18.12935,"emissions":41471.7},{"id":38489233,"name":"Marvel International, Inc.","sector":"food-beverage-tobacco","type":"Imported Product|Poultry Processing","lon":-66.1124,"lat":18.41766,"emissions":41471.7},{"id":38485730,"name":"Embutidos Don Frank","sector":"food-beverage-tobacco","type":"Meat Processing| Poultry Processing","lon":-65.98244,"lat":18.40261,"emissions":41471.7},{"id":38489956,"name":"Mondelez Global Llc","sector":"food-beverage-tobacco","type":"Cheese Manufacturing","lon":-66.07289,"lat":18.34391,"emissions":41471.7},{"id":38490079,"name":"Numeat Packing, Inc.","sector":"food-beverage-tobacco","type":"Meat Processing| Poultry Processing","lon":-66.0961,"lat":18.41633,"emissions":41471.7},{"id":38490258,"name":"Ngpm Food Products","sector":"food-beverage-tobacco","type":"Meat Processing| Poultry Processing","lon":-66.27808,"lat":18.13006,"emissions":41471.7},{"id":38491076,"name":"Procesadora La Hacienda, Inc.","sector":"food-beverage-tobacco","type":"Meat Processing| Poultry Processing","lon":-65.95958,"lat":18.18387,"emissions":41471.7},{"id":38491079,"name":"Procesos Boricuas Inc.","sector":"food-beverage-tobacco","type":"Meat Processing| Poultry Processing","lon":-66.20911,"lat":18.40403,"emissions":41471.7},{"id":38489949,"name":"Naive Llc","sector":"food-beverage-tobacco","type":"Meat Processing| Poultry Processing","lon":-67.00016,"lat":18.45066,"emissions":41471.7},{"id":38485731,"name":"Embutidos El Compay","sector":"food-beverage-tobacco","type":"Poultry Processing","lon":-66.34316,"lat":18.0813,"emissions":41471.7},{"id":38485747,"name":"Elaboraciones Fiesta","sector":"food-beverage-tobacco","type":"Meat Processing| Poultry Processing","lon":-67.14255,"lat":18.34977,"emissions":41471.7},{"id":38482243,"name":"Alcor Foods, Inc.","sector":"food-beverage-tobacco","type":"Meat Processing| Poultry Processing","lon":-66.16224,"lat":18.35595,"emissions":41471.7},{"id":38485782,"name":"Empacadora Y Procesadora Del Sur, Inc.","sector":"food-beverage-tobacco","type":"Meat Processing| Poultry Processing","lon":-66.36635,"lat":18.06642,"emissions":41471.7},{"id":38486336,"name":"Ganaderos Alvarado, Inc.","sector":"food-beverage-tobacco","type":"Meat Processing| Meat Slaughter","lon":-66.70685,"lat":18.41709,"emissions":41471.7},{"id":38487114,"name":"Hato Rey Meat Packing","sector":"food-beverage-tobacco","type":"Meat Processing| Poultry Processing","lon":-66.04988,"lat":18.41746,"emissions":41471.7},{"id":38487194,"name":"Gur-Meat Inc.","sector":"food-beverage-tobacco","type":"Meat Processing","lon":-66.58269,"lat":18.45938,"emissions":41471.7},{"id":38488245,"name":"Kefruits, Llc","sector":"food-beverage-tobacco","type":"Animal (Except Poultry) Slaughtering | Slaughterhouse","lon":-65.99211,"lat":18.34134,"emissions":41471.7},{"id":38488247,"name":"Ke'Fruits Llc","sector":"food-beverage-tobacco","type":"Certification - Export| Meat Processing","lon":-65.96974,"lat":18.3809,"emissions":41471.7},{"id":38491081,"name":"Processadora La Esperanza Inc.","sector":"food-beverage-tobacco","type":"Meat Processing| Poultry Processing","lon":-66.31636,"lat":18.18792,"emissions":41471.7},{"id":38494428,"name":"Western Meat Processors, Inc.","sector":"food-beverage-tobacco","type":"Meat Processing| Poultry Processing","lon":-67.15113,"lat":18.20663,"emissions":41471.7},{"id":38491098,"name":"Productos La Hortaliza","sector":"food-beverage-tobacco","type":"Meat Processing| Poultry Processing","lon":-67.1426,"lat":18.29572,"emissions":41471.7}]}