{"iso_code":"PRK","generated_at":"2026-06-02T15:38:26-03:00","gas":"co2e_100yr","sectors":["power","fossil-fuel-operations","manufacturing","mineral-extraction"],"assets":[{"id":32440878,"name":"Kim Chaek Iron and Steel Complex steel plant","sector":"iron-and-steel","type":"EAF,BF/BOF","lon":129.74982,"lat":41.75076,"emissions":8508209.5},{"id":25451755,"name":"Pukchang power station","sector":"electricity-generation","type":"coal","lon":126.3051,"lat":39.5861,"emissions":3359300.0},{"id":32440876,"name":"Ch'ŏngjin Ironworks steel plant","sector":"iron-and-steel","type":"DRI-EAF,BF/BOF","lon":129.79427,"lat":41.77878,"emissions":2403184.3},{"id":3164243,"name":"Deokcheon Coal Mining Complex","sector":"coal-mining","type":"Underground","lon":126.28956,"lat":39.76266,"emissions":1769376.0},{"id":447779,"name":"East Pyongyang power station","sector":"electricity-generation","type":"coal","lon":125.6876,"lat":38.9693,"emissions":1679500.0},{"id":3164246,"name":"Gangdong Coal Mining Complex","sector":"coal-mining","type":"Underground","lon":126.24029,"lat":39.03916,"emissions":1474480.0},{"id":32440877,"name":"Hwanghae Iron and Steel Complex steel plant","sector":"iron-and-steel","type":"EAF,BF/BOF","lon":125.60981,"lat":38.74447,"emissions":1291163.9},{"id":1897681,"name":"Korea Building Materials Sunchon Cement Plant","sector":"cement","type":"integrated dry","lon":126.02298,"lat":39.44444,"emissions":1179824.2},{"id":3164247,"name":"Hamnam Coal Mining Complex","sector":"coal-mining","type":"Underground","lon":126.92528,"lat":39.38443,"emissions":1179584.0},{"id":715737,"name":"Pyongyang power station","sector":"electricity-generation","type":"coal","lon":125.7109,"lat":39.0093,"emissions":1049710.0},{"id":42547258,"name":"Korea Building Materials Gomusan Cement Plant","sector":"cement","type":"integrated dry","lon":129.69493,"lat":42.12149,"emissions":785981.7},{"id":3164245,"name":"Gaecheon Coal Mine","sector":"coal-mining","type":"Underground","lon":125.8862,"lat":39.72312,"emissions":707750.4},{"id":32439036,"name":"Korea Building Materials Chonnae Cement Plant","sector":"cement","type":"integrated dry","lon":127.2144,"lat":39.36882,"emissions":667232.9},{"id":447642,"name":"Cheongcheon-Gang power station","sector":"electricity-generation","type":"coal","lon":125.6688,"lat":39.6566,"emissions":629840.0},{"id":42547347,"name":"Korea Building Materials Ryongdam Cement Plant","sector":"cement","type":"integrated dry","lon":127.2267,"lat":39.35984,"emissions":565513.9},{"id":42547253,"name":"Korea Building Materials Puhung Cement Plant","sector":"cement","type":"integrated dry","lon":126.00645,"lat":39.47278,"emissions":565513.9},{"id":42547342,"name":"Korea Building Materials Manpho Cement Plant","sector":"cement","type":"integrated dry","lon":126.29056,"lat":41.17987,"emissions":565513.9},{"id":42547414,"name":"Korea Building Materials Kyongamsan Cement Plant","sector":"cement","type":"integrated dry","lon":125.84149,"lat":38.47512,"emissions":565513.9},{"id":42547364,"name":"Korea Building Materials Pusan-ri Cement Plant","sector":"cement","type":"integrated dry","lon":126.0109,"lat":39.47659,"emissions":565513.9},{"id":3164249,"name":"Ryeongdae Coal Mine","sector":"coal-mining","type":"Underground","lon":129.06865,"lat":40.49031,"emissions":530812.8},{"id":25452392,"name":"Sonbong power station","sector":"electricity-generation","type":"coal","lon":130.3814,"lat":42.3279,"emissions":419900.0},{"id":25454165,"name":"Sunchon power station","sector":"electricity-generation","type":"coal","lon":125.9682,"lat":39.4015,"emissions":419900.0},{"id":3164252,"name":"Saebyol Coal Mining Complex","sector":"coal-mining","type":"Underground","lon":130.2001,"lat":42.86076,"emissions":360962.8},{"id":25453238,"name":"Chongjin City power station","sector":"electricity-generation","type":"coal","lon":129.7501,"lat":41.7837,"emissions":314910.0},{"id":16161,"name":"Cheongnam Coal Mine","sector":"coal-mining","type":"Underground","lon":125.39576,"lat":39.47165,"emissions":288826.0},{"id":16163,"name":"February 8 Jikdong Coal Mine","sector":"coal-mining","type":"Underground","lon":125.66861,"lat":39.49156,"emissions":247036.8},{"id":16162,"name":"Cheonseong Youth Coal Mine","sector":"coal-mining","type":"Underground","lon":125.17956,"lat":40.26816,"emissions":247036.8},{"id":16165,"name":"Ryongmun Coal Mine","sector":"coal-mining","type":"Underground","lon":126.0947,"lat":39.85116,"emissions":205864.0},{"id":3164240,"name":"Bongcheon Coal Mine","sector":"coal-mining","type":"Underground","lon":125.95909,"lat":39.77586,"emissions":164691.2},{"id":42547282,"name":"Korea Building Materials Madong Cement Plant","sector":"cement","type":"integrated dry","lon":125.82869,"lat":38.4629,"emissions":157196.3},{"id":45944999,"name":"Hyesan Mine","sector":"copper-mining","type":"copper-mine","lon":128.15708,"lat":41.36416,"emissions":81887.8},{"id":42547295,"name":"Korea Building Materials Sunghori Cement Plant","sector":"cement","type":"integrated wet","lon":125.97573,"lat":38.99643,"emissions":49523.0},{"id":25453253,"name":"Hongnam Fertilizer","sector":"electricity-generation","type":"coal","lon":127.6341,"lat":39.8402,"emissions":37791.0},{"id":3164248,"name":"Hwapung Coal Mine","sector":"coal-mining","type":"Underground","lon":125.39576,"lat":39.47165,"emissions":33597.9},{"id":3164253,"name":"Shinchang Youth Coal Mine","sector":"coal-mining","type":"Underground","lon":126.27461,"lat":39.61148,"emissions":24703.7},{"id":1567200,"name":"Ch'ollima Steel Complex steel plant","sector":"iron-and-steel","type":"EAF","lon":125.58169,"lat":38.92372,"emissions":20343.0},{"id":16164,"name":"Ryongdeung Coal Mine","sector":"coal-mining","type":"Underground","lon":126.0947,"lat":39.85116,"emissions":8234.6},{"id":38479023,"name":"Dandong Haihegu Garment Co Ltd","sector":"textiles-leather-apparel","type":"Final Product Assembly","lon":124.3353,"lat":40.0658,"emissions":6975.6}]}