{"iso_code":"PRT","generated_at":"2026-06-02T15:38:26-03:00","gas":"co2e_100yr","sectors":["power","fossil-fuel-operations","manufacturing","mineral-extraction"],"assets":[{"id":3144062,"name":"Galp Energia Sines Refinery","sector":"oil-and-gas-refining","type":"Medium Conversion","lon":-8.81138,"lat":37.96134,"emissions":2497426.2},{"id":38480817,"name":"Scc - Sociedade Central De Cervejas E Bebidas,S.A. (Ci)","sector":"food-beverage-tobacco","type":"Animal And Vegetable Products From The Food And Beverage Sector","lon":-9.08438,"lat":38.8708,"emissions":1138088.1},{"id":32439038,"name":"Alhandra Cement Plant","sector":"cement","type":"integrated dry","lon":-9.0103,"lat":38.9217,"emissions":985120.3},{"id":38480838,"name":"Carnes Landeiro, S.A (Ci)","sector":"food-beverage-tobacco","type":"Animal And Vegetable Products From The Food And Beverage Sector","lon":-8.56536,"lat":41.47191,"emissions":962931.4},{"id":32439040,"name":"Souselas Cement Plant","sector":"cement","type":"integrated dry","lon":-8.41818,"lat":40.28898,"emissions":953806.0},{"id":32439043,"name":"Outao Cement Plant","sector":"cement","type":"integrated dry","lon":-8.93616,"lat":38.5016,"emissions":835159.8},{"id":38480818,"name":"Sugal - Alimentos, Sa (Ci)","sector":"food-beverage-tobacco","type":"Animal And Vegetable Products From The Food And Beverage Sector","lon":-8.79917,"lat":39.00072,"emissions":776823.6},{"id":38467716,"name":"Fábrica Maceira-Liz (Ci)","sector":"lime","type":"Lime Production In Rotary Kilns","lon":-8.89764,"lat":39.68293,"emissions":772821.2},{"id":38480825,"name":"Rações Avenal Sa","sector":"food-beverage-tobacco","type":"Animal And Vegetable Products From The Food And Beverage Sector","lon":-9.12079,"lat":39.4036,"emissions":635429.9},{"id":18648370,"name":"Repsol SA , Sines ","sector":"petrochemical-steam-cracking","type":"Flex Standalone","lon":-8.82873,"lat":37.98578,"emissions":535046.9},{"id":38467717,"name":"Centro De Produção De Loulé (Ci)","sector":"lime","type":"Lime Production In Rotary Kilns","lon":-8.09759,"lat":37.1343,"emissions":518564.1},{"id":1897686,"name":"Maceirla-Liz Cement Plant","sector":"cement","type":"integrated dry","lon":-8.90537,"lat":39.68568,"emissions":508322.4},{"id":38467604,"name":"Fábrica Cibra-Pataias (Ci)","sector":"lime","type":"Lime Production In Rotary Kilns","lon":-8.98477,"lat":39.6578,"emissions":462285.8},{"id":38467718,"name":"Lusical, Companhia Lusitana De Cal  Sa (Ci)","sector":"lime","type":"Lime Production In Rotary Kilns","lon":-8.84746,"lat":39.44757,"emissions":354754.1},{"id":1897687,"name":"Cibra-Pataias Cement Plant","sector":"cement","type":"integrated dry","lon":-8.98764,"lat":39.65615,"emissions":326594.2},{"id":44375639,"name":"Figueira da Foz BEKP Pulp and Paper Mill","sector":"pulp-and-paper","type":"Mechanical and semi-chemical wood pulp","lon":-8.85313,"lat":40.05969,"emissions":309170.8},{"id":38480824,"name":"Progado - Sociedade Produtora De Rações, S.A.","sector":"food-beverage-tobacco","type":"Animal And Vegetable Products From The Food And Beverage Sector","lon":-8.6461,"lat":41.05678,"emissions":298823.6},{"id":44375641,"name":"The Navigator Company - Setúbal Mill","sector":"pulp-and-paper","type":"Pulp from fibres other than wood","lon":-8.80728,"lat":38.49204,"emissions":298322.8},{"id":25452984,"name":"LIPOR II","sector":"electricity-generation","type":"waste","lon":-8.6498,"lat":41.2285,"emissions":296900.0},{"id":25453838,"name":"Lares power station","sector":"electricity-generation","type":"gas","lon":-8.775,"lat":40.1245,"emissions":296633.0},{"id":38480833,"name":"Promor-Abastecedora De Produtos Agro-Pecuários, S.A. (Ci)","sector":"food-beverage-tobacco","type":"Animal And Vegetable Products From The Food And Beverage Sector","lon":-8.74924,"lat":39.78378,"emissions":280823.6},{"id":1897683,"name":"Loule Cement Plant","sector":"cement","type":"integrated dry","lon":-8.09975,"lat":37.13674,"emissions":274581.2},{"id":38467719,"name":"Calcidrata - Indústrias De Cal, S. A. (Ci)","sector":"lime","type":"Lime Production In Rotary Kilns","lon":-8.8466,"lat":39.4545,"emissions":264679.8},{"id":716354,"name":"Tapada do Outeiro power station","sector":"electricity-generation","type":"gas, coal, oil","lon":-8.4587,"lat":41.07,"emissions":260776.9},{"id":5228,"name":"Pego power station","sector":"electricity-generation","type":"coal, gas","lon":-8.1092,"lat":39.4682,"emissions":189040.0},{"id":44375640,"name":"Fapajal - Fábrica de Papel do Tojal S.A. Pulp Mill","sector":"pulp-and-paper","type":"Pulp misc. (known types include mechanical and semi-chemical wood pulp)","lon":-9.12635,"lat":38.86038,"emissions":180620.9},{"id":44375638,"name":"The Navigator Company - Cacia Pulp Mill","sector":"pulp-and-paper","type":"Pulp from fibres other than wood","lon":-8.59018,"lat":40.68452,"emissions":173569.6},{"id":25452985,"name":"Ribatejo power station","sector":"electricity-generation","type":"gas","lon":-8.9521,"lat":39.0118,"emissions":143866.7},{"id":38480812,"name":"Matadouro Central De Entre Douro E Minho, Lda. (Ci)","sector":"food-beverage-tobacco","type":"Animal And Vegetable Products From The Food And Beverage Sector","lon":-8.53744,"lat":41.37402,"emissions":138962.1},{"id":447980,"name":"Vitória power station","sector":"electricity-generation","type":"oil, gas, other_fossil","lon":-16.9676,"lat":32.648,"emissions":136630.0},{"id":38480837,"name":"Sorgal - Sociedade De Óleos E Rações,S.A. - Lamarosa","sector":"food-beverage-tobacco","type":"Animal And Vegetable Products From The Food And Beverage Sector","lon":-8.4824,"lat":39.5286,"emissions":136556.9},{"id":38480834,"name":"Italagro-Indústria De Transf. De Produtos Alimentares, S.A.","sector":"food-beverage-tobacco","type":"Animal And Vegetable Products From The Food And Beverage Sector","lon":-8.95874,"lat":38.979,"emissions":136556.9},{"id":38480831,"name":"Avibom Avícola (Ci)","sector":"food-beverage-tobacco","type":"Animal And Vegetable Products From The Food And Beverage Sector","lon":-9.22908,"lat":39.15767,"emissions":136556.9},{"id":38480832,"name":"Tate E Lyle Açúcares Portugal","sector":"food-beverage-tobacco","type":"Animal And Vegetable Products From The Food And Beverage Sector","lon":-9.0799,"lat":38.84385,"emissions":136556.9},{"id":38480828,"name":"\nUnicer Cervejas S.A. - Centro De Produção De Santarém\n","sector":"food-beverage-tobacco","type":"Animal And Vegetable Products From The Food And Beverage Sector","lon":-8.70618,"lat":39.25931,"emissions":136556.9},{"id":38480821,"name":"Victor Guedes - Indústria E Comércio, S.A. (Ci)","sector":"food-beverage-tobacco","type":"Animal And Vegetable Products From The Food And Beverage Sector","lon":-8.18902,"lat":39.44142,"emissions":136556.9},{"id":38480839,"name":"Nestlé Portugal - Fabrica De Avanca (Ci)","sector":"food-beverage-tobacco","type":"Animal And Vegetable Products From The Food And Beverage Sector","lon":-8.57212,"lat":40.80069,"emissions":136556.9},{"id":38480840,"name":"Sugal- Alimentos, Sa (Ci)","sector":"food-beverage-tobacco","type":"Animal And Vegetable Products From The Food And Beverage Sector","lon":-8.88522,"lat":39.05965,"emissions":136556.9},{"id":38480836,"name":"Sovena Oilseeds Portugal, S.A. (Ci)","sector":"food-beverage-tobacco","type":"Animal And Vegetable Products From The Food And Beverage Sector","lon":-9.18332,"lat":38.6781,"emissions":136556.9},{"id":38480841,"name":"European Seafood Investments Portugal (Ci)","sector":"food-beverage-tobacco","type":"Animal And Vegetable Products From The Food And Beverage Sector","lon":-9.37387,"lat":39.36377,"emissions":136556.9},{"id":38480822,"name":"Fromageries Bel Portugal S.A. - Fábrica De Vale De Cambra (Ci)","sector":"food-beverage-tobacco","type":"Animal And Vegetable Products From The Food And Beverage Sector","lon":-8.39637,"lat":40.86608,"emissions":136556.9},{"id":38480830,"name":"Avisabor - Indústria Agro-Alimentar, Sa (Ci)","sector":"food-beverage-tobacco","type":"Animal And Vegetable Products From The Food And Beverage Sector","lon":-8.57007,"lat":40.75226,"emissions":136556.9},{"id":38480827,"name":"\nDai - Sociedade De Desenvolvimento Agro-Industrial, S.A.\n","sector":"food-beverage-tobacco","type":"Animal And Vegetable Products From The Food And Beverage Sector","lon":-8.44674,"lat":38.91482,"emissions":136556.9},{"id":38480826,"name":"\nSopragol - Sociedade De Industrialização De Produtos Agrícolas Sopragol, S.A.\n","sector":"food-beverage-tobacco","type":"Animal And Vegetable Products From The Food And Beverage Sector","lon":-8.14578,"lat":38.95092,"emissions":136556.9},{"id":38480820,"name":"Lactogal  - Produtos Alimentares, S.A. - Tocha (Ci)","sector":"food-beverage-tobacco","type":"Animal And Vegetable Products From The Food And Beverage Sector","lon":-8.75405,"lat":40.31101,"emissions":136556.9},{"id":38480823,"name":"Interaves - Abrigada","sector":"food-beverage-tobacco","type":"Animal And Vegetable Products From The Food And Beverage Sector","lon":-8.99354,"lat":39.15748,"emissions":136556.9},{"id":38480816,"name":"S+C Marcas - Almeirim (Ci)","sector":"food-beverage-tobacco","type":"Animal And Vegetable Products From The Food And Beverage Sector","lon":-8.63858,"lat":39.19052,"emissions":136556.9},{"id":38480813,"name":"Parmalat Portugal - Produtos Alimentares, Lda (Ci)","sector":"food-beverage-tobacco","type":"Animal And Vegetable Products From The Food And Beverage Sector","lon":-8.65767,"lat":38.59959,"emissions":136556.9},{"id":38480811,"name":"Fromageries Bel Portugal, S.A.","sector":"food-beverage-tobacco","type":"Animal And Vegetable Products From The Food And Beverage Sector","lon":-25.48494,"lat":37.79823,"emissions":136556.9},{"id":38480814,"name":"Super Bock Bebidas S.A. - Centro De Produção De Leça Do Balio (Ci)","sector":"food-beverage-tobacco","type":"Animal And Vegetable Products From The Food And Beverage Sector","lon":-8.62632,"lat":41.21433,"emissions":136556.9},{"id":38480809,"name":"Pronicol - Produtos Lacteos, S.A.","sector":"food-beverage-tobacco","type":"Animal And Vegetable Products From The Food And Beverage Sector","lon":-27.22479,"lat":38.64648,"emissions":136556.9},{"id":38480810,"name":"Prolacto - Lacticínios De S. Miguel, S.A.","sector":"food-beverage-tobacco","type":"Animal And Vegetable Products From The Food And Beverage Sector","lon":-28.30378,"lat":38.49402,"emissions":136556.9},{"id":38480815,"name":"Sumolis Gm - Pombal (Ci)","sector":"food-beverage-tobacco","type":"Animal And Vegetable Products From The Food And Beverage Sector","lon":-8.63425,"lat":39.91981,"emissions":136556.9},{"id":38469230,"name":"Santos Barosa Vidros Sa (Ci)","sector":"glass","type":"Glass Manufacturing","lon":-8.9233,"lat":39.73669,"emissions":136326.7},{"id":1567008,"name":"SN SEIXAL Siderurgia Nacional steel plant","sector":"iron-and-steel","type":"EAF","lon":-9.07312,"lat":38.62303,"emissions":127031.8},{"id":38469233,"name":"Ba Glass Portugal, Sa - Unidade Fabril Da Marinha Grande (Ci)","sector":"glass","type":"Glass Manufacturing","lon":-8.92905,"lat":39.74332,"emissions":107041.7},{"id":38469238,"name":"Ba Glass Portugal, Sa - Unidade Fabril De Avintes (Ci)","sector":"glass","type":"Glass Manufacturing","lon":-8.53117,"lat":41.08693,"emissions":105022.0},{"id":449299,"name":"Setubal Mill power station","sector":"electricity-generation","type":"gas, biomass, oil, other_fossil","lon":-8.8077,"lat":38.4934,"emissions":87975.0},{"id":45257184,"name":"Solvay Povoa Facility","sector":"chemicals","type":"soda_ash","lon":-9.06753,"lat":38.85576,"emissions":76073.0},{"id":1567009,"name":"SN MAIA Siderurgia Nacional steel plant","sector":"iron-and-steel","type":"EAF","lon":-8.5551,"lat":41.25449,"emissions":69290.1},{"id":449804,"name":"Caldeirão power station","sector":"electricity-generation","type":"oil","lon":-25.6137,"lat":37.7812,"emissions":63073.0},{"id":44375637,"name":"Celbi Caima Dissolving Pulp Mill","sector":"pulp-and-paper","type":"Pulp misc.","lon":-8.33329,"lat":39.47156,"emissions":62376.6},{"id":44375636,"name":"Leirosa Bleached Eucalyptus Pulp Mill","sector":"pulp-and-paper","type":"Pulp misc.","lon":-8.87514,"lat":40.05055,"emissions":59664.5},{"id":451478,"name":"Sines Polimeros power station","sector":"electricity-generation","type":"gas","lon":-8.8273,"lat":37.9828,"emissions":58995.0},{"id":38469245,"name":"Saint - Gobain Glass Portugal, Vidro Plano S.A.","sector":"glass","type":"Glass Manufacturing","lon":-9.08536,"lat":38.83339,"emissions":47664.8},{"id":38469243,"name":"Verallia Portugal, S.A (Ci)","sector":"glass","type":"Glass Manufacturing","lon":-8.81766,"lat":40.14308,"emissions":47664.8},{"id":38469241,"name":"Crisal - Cristalaria Automática, Sa (Ci)","sector":"glass","type":"Glass Manufacturing","lon":-8.92907,"lat":39.72353,"emissions":47664.8},{"id":38469236,"name":"Ba Glass Portugal, S.A. Unidade Fabril Da Venda Nova (Ci)","sector":"glass","type":"Glass Manufacturing","lon":-9.21888,"lat":38.75371,"emissions":47664.8},{"id":38469232,"name":"Gallovidro, S.A. (Ci)","sector":"glass","type":"Glass Manufacturing","lon":-8.93178,"lat":39.75484,"emissions":47664.8},{"id":450625,"name":"Caniçal power station","sector":"electricity-generation","type":"oil","lon":-16.9679,"lat":32.6473,"emissions":44967.0},{"id":25455859,"name":"Sines Refinery power station","sector":"electricity-generation","type":"oil","lon":-8.8048,"lat":37.9583,"emissions":44532.0},{"id":25455861,"name":"Matosinhos Refinery power station","sector":"electricity-generation","type":"oil","lon":-8.7119,"lat":41.2101,"emissions":43448.0},{"id":448847,"name":"Sines Refinery power station","sector":"electricity-generation","type":"oil","lon":-9.1754,"lat":38.7565,"emissions":43012.0},{"id":451308,"name":"Viana Mill power station","sector":"electricity-generation","type":"biomass, gas, other_fossil","lon":-8.7116,"lat":41.7001,"emissions":40322.0},{"id":449805,"name":"Terceira power station","sector":"electricity-generation","type":"oil","lon":-27.0699,"lat":38.7154,"emissions":37668.0},{"id":4403618,"name":"Figueira da Foz Industrial Complex power station","sector":"electricity-generation","type":"biomass, gas","lon":-8.8547,"lat":40.0591,"emissions":28048.0},{"id":45945056,"name":"Neves-Corvo Mine","sector":"copper-mining","type":"copper-mine","lon":-7.97283,"lat":37.57371,"emissions":23358.0},{"id":40696813,"name":"Indorama Sines power station","sector":"electricity-generation","type":"gas","lon":-8.8207,"lat":37.9796,"emissions":17585.0},{"id":718484,"name":"Fisigen power station","sector":"electricity-generation","type":"gas","lon":-8.4151,"lat":40.8666,"emissions":16997.0},{"id":40695389,"name":"Carrico Refinery power station","sector":"electricity-generation","type":"gas","lon":-8.8518,"lat":39.9816,"emissions":13396.0}]}