{"iso_code":"SDN","generated_at":"2026-06-02T15:38:31-03:00","gas":"co2e_100yr","sectors":["power","fossil-fuel-operations","manufacturing","mineral-extraction"],"assets":[{"id":53059126,"name":"Sudan_Muglad - Sudd Rift_Conventional onshore","sector":"oil-and-gas-production","type":"","lon":28.35947,"lat":11.0152,"emissions":979492.5},{"id":450855,"name":"Kosti power plant","sector":"electricity-generation","type":"oil","lon":32.8229,"lat":13.2087,"emissions":931790.0},{"id":1897787,"name":"Berber Cement Plant","sector":"cement","type":"integrated dry","lon":34.04628,"lat":17.93887,"emissions":645266.1},{"id":717088,"name":"Garri 1 Power Plant","sector":"electricity-generation","type":"oil, other_fossil, gas","lon":32.6965,"lat":16.1185,"emissions":591520.0},{"id":1897784,"name":"Abu Saffar Cement Plant","sector":"cement","type":"integrated dry","lon":33.83831,"lat":17.86894,"emissions":537968.3},{"id":448646,"name":"Mahmoud Sharif power station","sector":"electricity-generation","type":"oil","lon":32.5631,"lat":15.6504,"emissions":523870.0},{"id":450309,"name":"Kilo-X Dit power plant","sector":"electricity-generation","type":"oil","lon":32.5624,"lat":15.6505,"emissions":484530.0},{"id":1897785,"name":"Salam Ad Damar Cement Plant","sector":"cement","type":"integrated dry","lon":33.99851,"lat":17.62628,"emissions":451741.1},{"id":32439117,"name":"Mass Group Ad Damar Cement Plant","sector":"cement","type":"integrated dry","lon":33.99712,"lat":17.61815,"emissions":410330.3},{"id":32439122,"name":"Rabak Cement Plant","sector":"cement","type":"integrated dry","lon":32.72902,"lat":13.16967,"emissions":400703.5},{"id":1897786,"name":"Atbara Cement Plant","sector":"cement","type":"integrated dry","lon":33.80225,"lat":17.70649,"emissions":363057.0},{"id":49534272,"name":"Karadeniz Powership","sector":"electricity-generation","type":"oil","lon":37.2284,"lat":19.6095,"emissions":295090.0},{"id":715418,"name":"Port Sudan power station","sector":"electricity-generation","type":"oil, gas","lon":37.2469,"lat":19.5205,"emissions":134266.0},{"id":25451449,"name":"Nyala","sector":"electricity-generation","type":"oil","lon":24.8833,"lat":12.05,"emissions":71564.0},{"id":53059969,"name":"Sudan_Muglad - Sudd Rift_Conventional onshore","sector":"oil-and-gas-transport","type":"","lon":28.35947,"lat":11.0152,"emissions":67408.3},{"id":3144125,"name":"KRC Khartoum Refinery","sector":"oil-and-gas-refining","type":"Deep Conversion","lon":32.68828,"lat":16.12858,"emissions":63717.1},{"id":53059127,"name":"Sudan_White Nile Rift_Conventional onshore","sector":"oil-and-gas-production","type":"","lon":32.38969,"lat":12.09896,"emissions":61681.9},{"id":25451447,"name":"Atbara","sector":"electricity-generation","type":"oil","lon":34.0,"lat":17.7,"emissions":26649.0},{"id":25451446,"name":"El Obeid","sector":"electricity-generation","type":"oil","lon":30.2167,"lat":13.1833,"emissions":24227.0},{"id":452617,"name":"White Nile Sugar Factory power station","sector":"electricity-generation","type":"biomass, oil","lon":32.4686,"lat":14.0721,"emissions":21430.0},{"id":53059970,"name":"Sudan_White Nile Rift_Conventional onshore","sector":"oil-and-gas-transport","type":"","lon":32.38969,"lat":12.09896,"emissions":6486.7}]}