{"iso_code":"SLV","generated_at":"2026-06-02T15:38:34-03:00","gas":"co2e_100yr","sectors":["power","fossil-fuel-operations","manufacturing","mineral-extraction"],"assets":[{"id":1897793,"name":"El Ronco Cement Plant","sector":"cement","type":"integrated dry","lon":-89.5019,"lat":14.32705,"emissions":658646.0},{"id":1897794,"name":"Maya Cement Plant","sector":"cement","type":"integrated dry","lon":-89.53254,"lat":14.32033,"emissions":614387.1},{"id":447686,"name":"Orazul Acajutla power station","sector":"electricity-generation","type":"oil","lon":-89.8239,"lat":13.5834,"emissions":114188.0},{"id":3143879,"name":"Puma Energy Acajutla Refinery","sector":"oil-and-gas-refining","type":"Hydroskimming","lon":-89.82771,"lat":13.56718,"emissions":94476.3},{"id":447677,"name":"Nejapa Power power station","sector":"electricity-generation","type":"oil","lon":-89.2009,"lat":13.7792,"emissions":69930.0},{"id":450618,"name":"Talnique power station","sector":"electricity-generation","type":"oil","lon":-89.4177,"lat":13.7249,"emissions":36172.0},{"id":451842,"name":"Termopuerto power station","sector":"electricity-generation","type":"oil","lon":-89.8244,"lat":13.5638,"emissions":26100.0},{"id":38472436,"name":"Servicios Ciudad Arce S.A. De C.V.","sector":"textiles-leather-apparel","type":"Sewing|Final Assembly","lon":-89.3582,"lat":13.73192,"emissions":3282.5},{"id":38478985,"name":"Cygnus Investments S.A. De C.V.","sector":"textiles-leather-apparel","type":"Finished Goods","lon":-89.10994,"lat":13.53551,"emissions":3282.5},{"id":38476955,"name":"Impression Apparel Group S.A. De C.V.","sector":"textiles-leather-apparel","type":"Final Product Assembly","lon":-89.13621,"lat":13.69213,"emissions":3282.5},{"id":38473948,"name":"Cygnus Investments S.A. De C.V.","sector":"textiles-leather-apparel","type":"Final Product Assembly","lon":-89.10994,"lat":13.53551,"emissions":3282.5},{"id":38469512,"name":"Textufil","sector":"textiles-leather-apparel","type":"Printing, Product Dyeing And Laundering","lon":-89.14161,"lat":13.69984,"emissions":3282.5},{"id":38469719,"name":"Swisstex Direct, Llc","sector":"textiles-leather-apparel","type":"Printing, Product Dyeing And Laundering","lon":-89.36691,"lat":13.75089,"emissions":3282.5},{"id":38470217,"name":"Pettenati Centro America Sa De Cv","sector":"textiles-leather-apparel","type":"Fabric Mill","lon":-89.21819,"lat":13.69294,"emissions":3282.5},{"id":38471889,"name":"Textiles La Paz (Fun Tees)","sector":"textiles-leather-apparel","type":"Finished Goods","lon":-89.01658,"lat":13.46301,"emissions":3282.5},{"id":38471966,"name":"Confecciones Del Valle S.A. De C.V.","sector":"textiles-leather-apparel","type":"Final Product Assembly","lon":-89.35696,"lat":13.72999,"emissions":3282.5},{"id":38472729,"name":"Servicios Opico S.A. De C.V.","sector":"textiles-leather-apparel","type":"Final Product Assembly","lon":-89.3582,"lat":13.73192,"emissions":3282.5},{"id":38475491,"name":"Supertex Lourdes S.A. De C.V.","sector":"textiles-leather-apparel","type":"Assembly","lon":-89.36691,"lat":13.75089,"emissions":3282.5},{"id":38476220,"name":"Servicios Opico, S.A De C.V","sector":"textiles-leather-apparel","type":"Final Product Assembly","lon":-89.36851,"lat":13.72327,"emissions":3282.5},{"id":38476221,"name":"Servicios San Julian, S.A De C.V","sector":"textiles-leather-apparel","type":"Final Product Assembly","lon":-89.3582,"lat":13.73192,"emissions":3282.5},{"id":38478076,"name":"Servicios Las Moras S.A. De C.V.","sector":"textiles-leather-apparel","type":"Final Product Assembly","lon":-89.3582,"lat":13.73192,"emissions":3282.5},{"id":38478840,"name":"Bordados Rivas S A De C V","sector":"textiles-leather-apparel","type":"Free-Standing Embroidery","lon":-89.21819,"lat":13.69294,"emissions":3282.5},{"id":38479677,"name":"Intradeco Apparel Inc.","sector":"textiles-leather-apparel","type":"Dyeing And Finishing","lon":-89.13205,"lat":13.69524,"emissions":3282.5},{"id":38479209,"name":"Exportadora Tsa, S.A. De C.V.","sector":"textiles-leather-apparel","type":"Cutting | Dyeing | Packing | Printing | Sewing | Washing | Weaving","lon":-89.35826,"lat":13.87587,"emissions":3282.5},{"id":38475837,"name":"Grupo Miguel Sa. De Cv.","sector":"textiles-leather-apparel","type":"Final Product Assembly","lon":-89.36691,"lat":13.75089,"emissions":3282.5},{"id":38475942,"name":"Supertex El Salvador S.A. De C.V.","sector":"textiles-leather-apparel","type":"Final Product Assembly","lon":-89.69349,"lat":13.98928,"emissions":3282.5},{"id":38472379,"name":"Servicios Coatepeque, S.A De C.V","sector":"textiles-leather-apparel","type":"Final Product Assembly","lon":-89.34878,"lat":13.70779,"emissions":3282.5},{"id":38472034,"name":"Decotex International, Ldta De C.V.","sector":"textiles-leather-apparel","type":"Finished Goods","lon":-89.41994,"lat":13.81418,"emissions":3282.5},{"id":38471982,"name":"Techno Screen S.A. De C.V.","sector":"textiles-leather-apparel","type":"Final Product Assembly","lon":-89.24902,"lat":13.67444,"emissions":3282.5},{"id":38474705,"name":"Servicios Colon, S.A. De C.V.","sector":"textiles-leather-apparel","type":"Final Product Assembly","lon":-89.3582,"lat":13.73192,"emissions":3282.5},{"id":38474828,"name":"Lenor Industries, Sa. De Cv","sector":"textiles-leather-apparel","type":"Final Product Assembly","lon":-89.53872,"lat":14.01564,"emissions":3282.5},{"id":38474880,"name":"Varsity Pro Ltda. De. C.V.","sector":"textiles-leather-apparel","type":"Final Product Assembly","lon":-89.42159,"lat":13.81429,"emissions":3282.5},{"id":38476827,"name":"Celeritas Manufacturing Sa De Cv","sector":"textiles-leather-apparel","type":"Finished Goods","lon":-89.17275,"lat":13.6997,"emissions":3282.5}]}