{"iso_code":"SPM","generated_at":"2026-06-02T14:21:04-03:00","gas":"co2e_100yr","sectors":["power","fossil-fuel-operations","manufacturing","mineral-extraction","transportation"],"assets":[{"id":1933999,"name":"St Pierre","sector":"domestic-shipping","type":"","lon":-56.17027,"lat":46.77971,"emissions":38694.3},{"id":2801190,"name":"St Pierre","sector":"international-shipping","type":"","lon":-56.17027,"lat":46.77971,"emissions":11218.0},{"id":3600165,"name":"Saint-Pierre Commune","sector":"road-transportation","type":"","lon":-56.19556,"lat":46.7825,"emissions":9783.0},{"id":1933998,"name":"Miquelon","sector":"domestic-shipping","type":"","lon":-56.3761,"lat":47.1011,"emissions":7572.4},{"id":3600164,"name":"Miquelon-Langlade Commune","sector":"road-transportation","type":"","lon":-56.32669,"lat":46.96429,"emissions":5990.0},{"id":3166664,"name":"Saint-Pierre Pointe-Blanche Airport","sector":"international-aviation","type":"international","lon":-56.17499,"lat":46.76265,"emissions":1899.9},{"id":2806387,"name":"Miquelon","sector":"international-shipping","type":"","lon":-56.3761,"lat":47.1011,"emissions":516.6},{"id":38887968,"name":"Unknown name","sector":"international-shipping","type":"","lon":-56.2734,"lat":46.9158,"emissions":114.2},{"id":45120616,"name":"Unknown name","sector":"domestic-shipping","type":"","lon":-56.2871,"lat":46.8994,"emissions":8.7}]}