{"iso_code":"TUN","generated_at":"2026-06-02T15:38:45-03:00","gas":"co2e_100yr","sectors":["power","fossil-fuel-operations","manufacturing","mineral-extraction"],"assets":[{"id":449294,"name":"Rades A power station","sector":"electricity-generation","type":"gas, other_fossil","lon":10.2832,"lat":36.7973,"emissions":1997300.0},{"id":449297,"name":"Sousse D power station","sector":"electricity-generation","type":"gas, oil, other_fossil","lon":10.6772,"lat":35.7864,"emissions":1581400.0},{"id":53059159,"name":"Tunisia_Pelagian_Conventional shelf","sector":"oil-and-gas-production","type":"","lon":11.33002,"lat":34.80252,"emissions":1435941.8},{"id":25455599,"name":"Mornaguia power station","sector":"electricity-generation","type":"gas","lon":9.9211,"lat":36.6773,"emissions":1210780.0},{"id":32439164,"name":"Ain Garci Cement Plant","sector":"cement","type":"integrated dry","lon":10.20158,"lat":36.77791,"emissions":1207975.3},{"id":53059156,"name":"Tunisia_Illizi - Ghadames_Conventional onshore","sector":"oil-and-gas-production","type":"","lon":9.88744,"lat":31.52597,"emissions":980308.0},{"id":25452092,"name":"Bir Mcherga power station","sector":"electricity-generation","type":"gas","lon":10.0545,"lat":36.4625,"emissions":962430.0},{"id":449288,"name":"Bouchemma power station","sector":"electricity-generation","type":"gas","lon":10.0376,"lat":33.9181,"emissions":849890.0},{"id":449289,"name":"Ghannouch power station","sector":"electricity-generation","type":"gas, oil","lon":10.0932,"lat":33.9263,"emissions":775430.0},{"id":25452101,"name":"Thyna power station","sector":"electricity-generation","type":"gas","lon":10.6424,"lat":34.6868,"emissions":710190.0},{"id":1897843,"name":"Al Hammah Cement Plant","sector":"cement","type":"integrated dry","lon":10.31701,"lat":36.59283,"emissions":653669.5},{"id":1897845,"name":"Djebel Ressas Cement Plant","sector":"cement","type":"integrated dry","lon":8.59319,"lat":35.84997,"emissions":584911.3},{"id":42547310,"name":"Ain Jalulah Cement Plant","sector":"cement","type":"integrated dry","lon":9.89116,"lat":35.7763,"emissions":575772.1},{"id":53060002,"name":"Tunisia_Pelagian_Conventional shelf","sector":"oil-and-gas-transport","type":"","lon":11.33002,"lat":34.80252,"emissions":499838.3},{"id":32439168,"name":"Bir Mcherga Gare Cement Plant","sector":"cement","type":"integrated dry","lon":9.85306,"lat":37.25863,"emissions":496451.7},{"id":25452823,"name":"Feriana power station","sector":"electricity-generation","type":"gas","lon":8.5408,"lat":34.9054,"emissions":465690.0},{"id":32439170,"name":"Bizerte Cement Plant","sector":"cement","type":"integrated dry","lon":8.53022,"lat":34.93791,"emissions":409639.5},{"id":1897842,"name":"Tunis Cement Plant","sector":"cement","type":"integrated dry","lon":10.0281,"lat":36.50025,"emissions":399081.3},{"id":449763,"name":"Rades II power station","sector":"electricity-generation","type":"gas, other_fossil","lon":10.2865,"lat":36.799,"emissions":365160.0},{"id":53059160,"name":"Tunisia_Sahara_Conventional onshore","sector":"oil-and-gas-production","type":"","lon":8.6437,"lat":33.34272,"emissions":315437.6},{"id":25452824,"name":"Goulette power station","sector":"electricity-generation","type":"gas","lon":10.2897,"lat":36.8148,"emissions":232840.0},{"id":43158508,"name":"Djerissa Mine","sector":"iron-mining","type":"iron-mine","lon":8.63949,"lat":35.83307,"emissions":208094.0},{"id":53059158,"name":"Tunisia_Pelagian_Conventional onshore","sector":"oil-and-gas-production","type":"","lon":10.1,"lat":34.5,"emissions":162377.1},{"id":53059999,"name":"Tunisia_Illizi - Ghadames_Conventional onshore","sector":"oil-and-gas-transport","type":"","lon":9.88744,"lat":31.52597,"emissions":148588.2},{"id":3144141,"name":"STIR Bizerte Refinery","sector":"oil-and-gas-refining","type":"Hydroskimming","lon":9.88962,"lat":37.25622,"emissions":142878.9},{"id":25452095,"name":"Kasserine","sector":"electricity-generation","type":"gas","lon":8.7709,"lat":35.2031,"emissions":131960.0},{"id":25452103,"name":"Tunis - Sud 1","sector":"electricity-generation","type":"gas","lon":10.2015,"lat":36.7659,"emissions":128062.0},{"id":25453023,"name":"Zarzis","sector":"electricity-generation","type":"gas","lon":11.0116,"lat":33.47,"emissions":65974.0},{"id":43158512,"name":"Tamera Mine","sector":"iron-mining","type":"iron-mine","lon":9.10159,"lat":37.05591,"emissions":52627.7},{"id":43158509,"name":"Douahria Mine","sector":"iron-mining","type":"iron-mine","lon":9.21144,"lat":37.0393,"emissions":52627.7},{"id":53060003,"name":"Tunisia_Sahara_Conventional onshore","sector":"oil-and-gas-transport","type":"","lon":8.6437,"lat":33.34272,"emissions":47223.3},{"id":53060001,"name":"Tunisia_Pelagian_Conventional onshore","sector":"oil-and-gas-transport","type":"","lon":10.1,"lat":34.5,"emissions":29951.7},{"id":25452096,"name":"Korba 1","sector":"electricity-generation","type":"oil","lon":10.8288,"lat":36.5809,"emissions":9738.8},{"id":25452100,"name":"Sfax","sector":"electricity-generation","type":"oil","lon":10.7031,"lat":34.8073,"emissions":7652.2},{"id":25452097,"name":"Menzel Bourguiba","sector":"electricity-generation","type":"oil","lon":9.8006,"lat":37.1482,"emissions":7652.2},{"id":38478744,"name":"A@W Site 2 (Droes)","sector":"textiles-leather-apparel","type":"Cut & Sew|Ironing|Knit Composite|Packaging|Product Finishing","lon":10.94679,"lat":35.64396,"emissions":5259.9},{"id":38472486,"name":"Gantex Ltd","sector":"textiles-leather-apparel","type":"Final Product Assembly","lon":9.86138,"lat":37.29075,"emissions":5259.9},{"id":38472969,"name":"Bramatex Holding","sector":"textiles-leather-apparel","type":"Final Product Assembly","lon":10.11172,"lat":35.69861,"emissions":5259.9},{"id":38473864,"name":"Vtl - Sa","sector":"textiles-leather-apparel","type":"Cutting|Sewing|Packing|Finishing","lon":10.86208,"lat":36.58061,"emissions":5259.9},{"id":38473976,"name":"Denim Authority S.A.","sector":"textiles-leather-apparel","type":"Ironing | Finishing | Cutting | Sewing | Washing | Embroidery | Garment Dyeing | Packing | Knit Composite | Garment Printing | Screen Printing | Stitching | Steaming","lon":10.12973,"lat":37.20264,"emissions":5259.9},{"id":38474911,"name":"Vtl2","sector":"textiles-leather-apparel","type":"Final Product Assembly","lon":10.86208,"lat":36.58061,"emissions":5259.9},{"id":38475058,"name":"Olimpias Industrielle Tunisie Sarl","sector":"textiles-leather-apparel","type":"Wet Process|Manufacturing|Other Processing|Printing","lon":10.67104,"lat":35.77682,"emissions":5259.9},{"id":38475836,"name":"Grg Oficina Srl","sector":"textiles-leather-apparel","type":"Wet Process|Manufacturing","lon":10.58306,"lat":36.68327,"emissions":5259.9},{"id":38475920,"name":"Hochbereg Ltd. (Tunisia)","sector":"textiles-leather-apparel","type":"Finished Goods","lon":9.86138,"lat":37.29075,"emissions":5259.9},{"id":38476396,"name":"Supply Chain Fashion","sector":"textiles-leather-apparel","type":"Cut & Sew|Cutting|Ironing|Knit Composite|Packaging|Product Finishing","lon":10.68347,"lat":35.71427,"emissions":5259.9},{"id":38476590,"name":"New Corset","sector":"textiles-leather-apparel","type":"Final Product Assembly","lon":10.95035,"lat":35.63519,"emissions":5259.9},{"id":38477056,"name":"Denim Manufacture","sector":"textiles-leather-apparel","type":"Cut & Sew|Cutting|Embroidery|Ironing|Knit Composite|Product Finishing","lon":10.50149,"lat":36.60248,"emissions":5259.9},{"id":38477173,"name":"Blue & Dye Sarl","sector":"textiles-leather-apparel","type":"Garment Dye","lon":10.48662,"lat":36.6043,"emissions":5259.9},{"id":38477215,"name":"Fimco Int","sector":"textiles-leather-apparel","type":"Final Product Assembly","lon":10.87055,"lat":35.55094,"emissions":5259.9},{"id":38477411,"name":"Giemmeti Sarl","sector":"textiles-leather-apparel","type":"Wet Process|Manufacturing|Other Processing","lon":10.82376,"lat":35.76381,"emissions":5259.9},{"id":38477442,"name":"Goldtex,  S.A.R.L.","sector":"textiles-leather-apparel","type":"Cutting|Sewing|Finishing","lon":9.7846,"lat":37.14324,"emissions":5259.9},{"id":38477444,"name":"Gonser Denim Revolution","sector":"textiles-leather-apparel","type":"Screen Printing|Washing|Printing|Washing","lon":10.48931,"lat":36.60171,"emissions":5259.9},{"id":38478016,"name":"Optimum Textile","sector":"textiles-leather-apparel","type":"Cutting, Sewing, Finishing","lon":10.10703,"lat":36.81206,"emissions":5259.9},{"id":38478226,"name":"Sidi Mode S.A.R.L.","sector":"textiles-leather-apparel","type":"Cut & Sew|Cutting|Ironing|Knit Composite|Packaging|Product Finishing","lon":10.5043,"lat":36.03141,"emissions":5259.9},{"id":38478234,"name":"Ste' Everwash Sarl","sector":"textiles-leather-apparel","type":"Wet Process","lon":10.75179,"lat":35.68098,"emissions":5259.9},{"id":38478743,"name":"A@W Site 1 (Detis)","sector":"textiles-leather-apparel","type":"Cut & Sew|Cutting|Ironing|Knit Composite|Packaging|Product Finishing","lon":10.94679,"lat":35.64396,"emissions":5259.9},{"id":38478764,"name":"B&B Tricot","sector":"textiles-leather-apparel","type":"Cutting|Garment Washing|Garment Knitting|Garment Linking|Packing|Steaming|Stitching","lon":10.16472,"lat":36.69595,"emissions":5259.9},{"id":38478775,"name":"Benetton Manufacturing Tunisia","sector":"textiles-leather-apparel","type":"Wet Process","lon":10.71165,"lat":35.75125,"emissions":5259.9},{"id":38478908,"name":"Copen Tunisia Sarl","sector":"textiles-leather-apparel","type":"Weaving| Knitting| Spinning| Dyeing| Finishing| Fabric Mill","lon":10.5827,"lat":35.87555,"emissions":5259.9},{"id":38479047,"name":"Decco","sector":"textiles-leather-apparel","type":"Cut & Sew|Ironing|Knit Composite|Packaging|Product Finishing","lon":10.59496,"lat":35.85569,"emissions":5259.9},{"id":38479359,"name":"Fashion Style (Hanekamp)","sector":"textiles-leather-apparel","type":"Cut & Sew|Cutting|Washing|Ironing|Knit Composite|Packaging|Product Finishing","lon":10.8375,"lat":36.54557,"emissions":5259.9},{"id":38479721,"name":"I.W.T. International Washing Textile","sector":"textiles-leather-apparel","type":"Garment Wash","lon":10.49306,"lat":36.69662,"emissions":5259.9},{"id":38479919,"name":"Libertex","sector":"textiles-leather-apparel","type":"Cut & Sew|Ironing|Knit Composite|Packaging|Product Finishing","lon":10.53524,"lat":35.86982,"emissions":5259.9},{"id":38479936,"name":"Lamak","sector":"textiles-leather-apparel","type":"Product Finishing|Ironing","lon":10.50149,"lat":36.60248,"emissions":5259.9},{"id":38480082,"name":"Mdf S.A.R.L.","sector":"textiles-leather-apparel","type":"Cutting|Garment Washing|Garment Linking|Packing|Steaming|Stitching","lon":10.83704,"lat":36.54605,"emissions":5259.9},{"id":38470597,"name":"Demcointer S.A.R.L.","sector":"textiles-leather-apparel","type":"Knitting|Cutting|Pretreatment|Dyeing|Washing|Finishing|Printing|Drying","lon":10.89596,"lat":35.6324,"emissions":5259.9},{"id":38478536,"name":"Vetra","sector":"textiles-leather-apparel","type":"Cutting|Ironing|Knit Composite|Packaging|Product Finishing","lon":9.66476,"lat":37.03889,"emissions":5259.9},{"id":38480031,"name":"Mahdco Tunisie","sector":"textiles-leather-apparel","type":"Cutting, Sewing, Finishing","lon":11.04572,"lat":35.50245,"emissions":5259.9},{"id":53059155,"name":"Tunisia_Atlas_Conventional onshore","sector":"oil-and-gas-production","type":"","lon":8.71835,"lat":35.26784,"emissions":3812.2},{"id":43158510,"name":"Hamima Mine","sector":"iron-mining","type":"iron-mine","lon":8.34245,"lat":35.91394,"emissions":2417.0},{"id":53059998,"name":"Tunisia_Atlas_Conventional onshore","sector":"oil-and-gas-transport","type":"","lon":8.71835,"lat":35.26784,"emissions":591.2}]}