{"iso_code":"TUV","generated_at":"2026-06-02T14:21:17-03:00","gas":"co2e_100yr","sectors":["power","fossil-fuel-operations","manufacturing","mineral-extraction","transportation"],"assets":[{"id":1934347,"name":"Funafuti","sector":"domestic-shipping","type":"","lon":179.11624,"lat":-8.51309,"emissions":25594.9},{"id":2802058,"name":"Funafuti","sector":"international-shipping","type":"","lon":179.11624,"lat":-8.51309,"emissions":17564.3},{"id":38892801,"name":"Unknown name","sector":"international-shipping","type":"","lon":177.3319,"lat":-6.1011,"emissions":4074.2},{"id":3600561,"name":"Funafuti Town Council","sector":"road-transportation","type":"","lon":179.12012,"lat":-8.42608,"emissions":1973.9},{"id":3166675,"name":"Funafuti International Airport","sector":"international-aviation","type":"international","lon":179.19698,"lat":-8.52388,"emissions":1067.1},{"id":3600562,"name":"Nanumanga Island Council","sector":"road-transportation","type":"","lon":176.32027,"lat":-6.28833,"emissions":638.7},{"id":3600569,"name":"Vaitupu Island Council","sector":"road-transportation","type":"","lon":178.67577,"lat":-7.47875,"emissions":598.2},{"id":3600563,"name":"Nanumea Island Council","sector":"road-transportation","type":"","lon":176.06838,"lat":-5.64792,"emissions":574.7},{"id":3600566,"name":"Nui Island Council","sector":"road-transportation","type":"","lon":177.16306,"lat":-7.22097,"emissions":368.8},{"id":38903466,"name":"Unknown name","sector":"domestic-shipping","type":"","lon":177.3319,"lat":-6.1011,"emissions":365.6},{"id":3600565,"name":"Niutao Island Council","sector":"road-transportation","type":"","lon":177.34305,"lat":-6.10883,"emissions":312.2},{"id":3600567,"name":"Nukufetau Island Council","sector":"road-transportation","type":"","lon":178.31203,"lat":-8.03161,"emissions":90.6}]}