{"iso_code":"TWN","generated_at":"2026-06-02T15:38:46-03:00","gas":"co2e_100yr","sectors":["power","fossil-fuel-operations","manufacturing","mineral-extraction"],"assets":[{"id":449443,"name":"Taichung power station","sector":"electricity-generation","type":"coal, oil","lon":120.479,"lat":24.215,"emissions":32882000.0},{"id":25451349,"name":"Mailiao power station","sector":"electricity-generation","type":"coal","lon":120.189,"lat":23.8034,"emissions":21463000.0},{"id":1567087,"name":"China Steel Corporation Xiaogang plant","sector":"iron-and-steel","type":"BF/BOF","lon":120.35646,"lat":22.542,"emissions":14878288.7},{"id":451113,"name":"Linkou power station","sector":"electricity-generation","type":"coal, oil","lon":121.298,"lat":25.1209,"emissions":14310000.0},{"id":449445,"name":"Datan power station","sector":"electricity-generation","type":"gas, other_fossil","lon":121.0471,"lat":25.0262,"emissions":12294400.0},{"id":449444,"name":"Talin power station","sector":"electricity-generation","type":"coal, gas","lon":120.335,"lat":22.537,"emissions":11653400.0},{"id":449439,"name":"Hsinta power station","sector":"electricity-generation","type":"coal, gas, other_fossil","lon":120.1972,"lat":22.8558,"emissions":11135200.0},{"id":451114,"name":"Tunghsiao power station","sector":"electricity-generation","type":"gas, other_fossil","lon":120.6735,"lat":24.49,"emissions":8397900.0},{"id":32441018,"name":"China Steel Dragon Steel Taichung plant","sector":"iron-and-steel","type":"BF/BOF,EAF","lon":120.49372,"lat":24.22818,"emissions":8048951.6},{"id":25451043,"name":"Ho-Ping power station","sector":"electricity-generation","type":"coal","lon":121.7635,"lat":24.3078,"emissions":7869700.0},{"id":3144132,"name":"Formosa Mailiao Refinery","sector":"oil-and-gas-refining","type":"Deep Conversion- Resid HC","lon":120.20842,"lat":23.80591,"emissions":5457833.3},{"id":18648400,"name":"Formosa Petrochemical Corp. , Taiwan, Mailiao","sector":"petrochemical-steam-cracking","type":"Flex Integrated","lon":120.20548,"lat":23.80014,"emissions":3750373.9},{"id":447633,"name":"Chia-Hui power station","sector":"electricity-generation","type":"gas, other_fossil","lon":120.4736,"lat":23.5337,"emissions":2793300.0},{"id":450129,"name":"Fong Der power station","sector":"electricity-generation","type":"gas, other_fossil","lon":120.3572,"lat":23.0822,"emissions":2510400.0},{"id":447620,"name":"Hai-Fu power station","sector":"electricity-generation","type":"gas, other_fossil","lon":121.257,"lat":25.1166,"emissions":2445100.0},{"id":25453095,"name":"Haifeng power station","sector":"electricity-generation","type":"coal","lon":120.1771,"lat":23.7709,"emissions":2408800.0},{"id":32439226,"name":"Taiwan Cement Corporation Branch Peace Cement Plant","sector":"cement","type":"integrated dry","lon":121.75317,"lat":24.3044,"emissions":2288957.9},{"id":25450953,"name":"Hsinkang SK power station","sector":"electricity-generation","type":"coal","lon":120.3756,"lat":23.5191,"emissions":2152100.0},{"id":1753802,"name":"CPC Dalin Refinery","sector":"oil-and-gas-refining","type":"Hydroskimming","lon":120.34721,"lat":22.53102,"emissions":1923905.7},{"id":18648399,"name":"Chinese Petroleum Corp. , Taiwan, Linyuan ","sector":"petrochemical-steam-cracking","type":"Flex Integrated","lon":120.35228,"lat":22.52914,"emissions":1880838.7},{"id":448152,"name":"Mailiao Formosa Petrochemical power station","sector":"electricity-generation","type":"coal, oil","lon":120.2119,"lat":23.8088,"emissions":1798800.0},{"id":25453101,"name":"Hwa Ya Cogen power station","sector":"electricity-generation","type":"coal","lon":121.3726,"lat":25.0354,"emissions":1788600.0},{"id":3144133,"name":"CPC Taoyuan Refinery","sector":"oil-and-gas-refining","type":"Medium Conversion","lon":121.30951,"lat":25.03486,"emissions":1597331.0},{"id":47814788,"name":"Dragon Steel power station","sector":"electricity-generation","type":"gas","lon":120.5015,"lat":24.2294,"emissions":1593300.0},{"id":448249,"name":"Hsin Tao power station","sector":"electricity-generation","type":"gas, other_fossil","lon":121.1978,"lat":24.8142,"emissions":1563500.0},{"id":451105,"name":"Star Buck power station","sector":"electricity-generation","type":"gas, other_fossil","lon":120.4214,"lat":24.1289,"emissions":1259420.0},{"id":1897918,"name":"Asia Cement Corp Hualian Cement Plant","sector":"cement","type":"integrated dry","lon":121.63663,"lat":24.13448,"emissions":1181803.6},{"id":449435,"name":"Chang-Bin power station","sector":"electricity-generation","type":"gas, other_fossil","lon":120.4319,"lat":24.1263,"emissions":1068560.0},{"id":448149,"name":"Longder power station","sector":"electricity-generation","type":"coal, other_fossil","lon":121.8171,"lat":24.6297,"emissions":1061670.0},{"id":449442,"name":"NanPu power station","sector":"electricity-generation","type":"gas, oil, other_fossil","lon":120.2995,"lat":22.601,"emissions":1058930.0},{"id":450159,"name":"Kuo Kuang power station","sector":"electricity-generation","type":"gas, other_fossil","lon":121.3423,"lat":25.0425,"emissions":998230.0},{"id":49534322,"name":"China Steel power station","sector":"electricity-generation","type":"gas","lon":120.3492,"lat":22.5548,"emissions":716020.0},{"id":25453014,"name":"Jinshin power station","sector":"electricity-generation","type":"coal","lon":121.2826,"lat":25.0554,"emissions":679650.0},{"id":32439227,"name":"Taiwan Cement Corportation Hualien Factory Cement Plant","sector":"cement","type":"integrated dry","lon":121.63721,"lat":24.01088,"emissions":641913.2},{"id":450209,"name":"Houli Mill power station","sector":"electricity-generation","type":"coal","lon":120.7268,"lat":24.2867,"emissions":552200.0},{"id":449775,"name":"Hsin Yu cogeneration power station","sector":"electricity-generation","type":"gas, other_fossil","lon":121.0229,"lat":24.7617,"emissions":491120.0},{"id":1897922,"name":"Asia Cement Corp Xinzhu Cement Plant","sector":"cement","type":"integrated dry","lon":121.13786,"lat":24.72176,"emissions":400681.5},{"id":449438,"name":"Hsieh-ho Power Plant","sector":"electricity-generation","type":"oil","lon":121.738,"lat":25.1565,"emissions":371700.0},{"id":450282,"name":"Linyuan Plant power station","sector":"electricity-generation","type":"coal","lon":120.4097,"lat":22.5071,"emissions":365460.0},{"id":447619,"name":"Miaoli Petrochemical power station","sector":"electricity-generation","type":"oil, coal","lon":120.8163,"lat":24.5926,"emissions":332220.0},{"id":25454247,"name":"Chiutang Mill power station","sector":"electricity-generation","type":"coal","lon":120.4185,"lat":22.6622,"emissions":298100.0},{"id":25453117,"name":"Kuan-Tien power station","sector":"electricity-generation","type":"coal","lon":120.3197,"lat":23.2109,"emissions":286170.0},{"id":25450951,"name":"Changhua power station","sector":"electricity-generation","type":"coal, oil","lon":120.5608,"lat":24.0929,"emissions":281960.0},{"id":38467624,"name":"Panzhihua Honglin Environmental Protection New Materials Co., Ltd.","sector":"lime","type":"Manufacturer | Lime | Ash Calcium Powder","lon":121.92029,"lat":25.11002,"emissions":263386.1},{"id":448642,"name":"Shu-Lin power station","sector":"electricity-generation","type":"coal, gas","lon":121.4096,"lat":24.972,"emissions":258890.0},{"id":1567093,"name":"Tung Ho Steel Miaoli Plant","sector":"iron-and-steel","type":"EAF","lon":120.74052,"lat":24.56867,"emissions":249414.7},{"id":25452236,"name":"TAYUAN INDUSTRIAL PARK","sector":"electricity-generation","type":"coal, oil, gas","lon":121.1753,"lat":25.0802,"emissions":228930.0},{"id":1567092,"name":"Tung Ho Steel Taoyuan Plant","sector":"iron-and-steel","type":"EAF","lon":121.14166,"lat":25.06649,"emissions":207845.6},{"id":1567090,"name":"Yieh United Steel Kaohsiung plant","sector":"iron-and-steel","type":"EAF","lon":120.3006,"lat":22.83191,"emissions":183974.9},{"id":1567242,"name":"Shyeh Sheng Fuat Steel Kaohsiung plant","sector":"iron-and-steel","type":"EAF","lon":120.36646,"lat":22.5601,"emissions":166691.1},{"id":1567094,"name":"Tung Ho Steel Kaohsiung Plant","sector":"iron-and-steel","type":"EAF","lon":120.36173,"lat":22.56228,"emissions":145491.9},{"id":1567245,"name":"Hai Kwang Enterprise Corporation","sector":"iron-and-steel","type":"EAF","lon":120.36693,"lat":22.55306,"emissions":138909.3},{"id":25452856,"name":"MAILIAO RF-CFB","sector":"electricity-generation","type":"other_fossil","lon":120.1961,"lat":23.8006,"emissions":119588.0},{"id":1567089,"name":"Feng Hsin Steel Taichung plant","sector":"iron-and-steel","type":"EAF","lon":120.71341,"lat":24.31235,"emissions":116393.5},{"id":450294,"name":"Linkou Plant TP power station","sector":"electricity-generation","type":"coal","lon":121.4134,"lat":25.0461,"emissions":90620.0},{"id":32267412,"name":"Taiwan","sector":"chemicals","type":"soda_ash","lon":120.9748,"lat":23.74096,"emissions":58281.2},{"id":1567091,"name":"E Top Metal Changhua plant","sector":"iron-and-steel","type":"EAF","lon":120.50528,"lat":24.16734,"emissions":41055.9},{"id":25450954,"name":"Jenwu power station","sector":"electricity-generation","type":"coal, oil","lon":120.335,"lat":22.7016,"emissions":38045.0},{"id":450337,"name":"Chienshan power plant","sector":"electricity-generation","type":"oil","lon":119.6594,"lat":23.5637,"emissions":37818.0},{"id":25452240,"name":"Maanshan","sector":"electricity-generation","type":"oil","lon":120.7501,"lat":21.9589,"emissions":33281.0},{"id":25452239,"name":"Kuosheng","sector":"electricity-generation","type":"oil","lon":121.6629,"lat":25.2025,"emissions":32322.0},{"id":53059134,"name":"Taiwan region_Taiwan_Conventional onshore","sector":"oil-and-gas-production","type":"","lon":120.79421,"lat":24.47283,"emissions":22925.0},{"id":53059977,"name":"Taiwan region_Taiwan_Conventional onshore","sector":"oil-and-gas-transport","type":"","lon":120.79421,"lat":24.47283,"emissions":17686.0},{"id":38469879,"name":"Textai Co., Ltd.","sector":"textiles-leather-apparel","type":"Dyeing","lon":121.1262,"lat":24.91315,"emissions":10692.8},{"id":38479671,"name":"Jason Fiber","sector":"textiles-leather-apparel","type":"Weaving|Sublimation|Laminating|Piece Dye|Garment Dye|Continuous Dye|Cotton Processing","lon":121.51853,"lat":25.05047,"emissions":10692.8},{"id":38469631,"name":"Tsgs","sector":"textiles-leather-apparel","type":"Coating | Finishing","lon":121.07137,"lat":25.04266,"emissions":10692.8},{"id":38469595,"name":"Singtex Industrial Co. Ltd.","sector":"textiles-leather-apparel","type":"Dyeing | Finishing | Weaving","lon":121.13007,"lat":25.05043,"emissions":10692.8},{"id":38469586,"name":"Kingwhale Corporation - Dayuan Factory","sector":"textiles-leather-apparel","type":"Dyeing | Finishing","lon":121.18256,"lat":25.07549,"emissions":10692.8},{"id":38469583,"name":"E.Textint Corp./ Stanwell-Expan Co., Ltd","sector":"textiles-leather-apparel","type":"Finished Goods - Components","lon":121.3681,"lat":25.03779,"emissions":10692.8},{"id":38469593,"name":"San Fanf Chemical Industry Co., Ltd.","sector":"textiles-leather-apparel","type":"Printing, Product Dyeing And Laundering","lon":120.33387,"lat":22.72108,"emissions":10692.8},{"id":38469596,"name":"Singtex Industries","sector":"textiles-leather-apparel","type":"Dyeing And Finishing","lon":121.45535,"lat":25.06462,"emissions":10692.8},{"id":38469616,"name":"Gwan Min Enterprise Co., Ltd","sector":"textiles-leather-apparel","type":"Printing, Product Dyeing And Laundering","lon":121.42432,"lat":24.96312,"emissions":10692.8},{"id":38469550,"name":"Sunny Special Dyeing & Finishing Co., Ltd.","sector":"textiles-leather-apparel","type":"Dyeing | Finishing","lon":121.17728,"lat":25.06987,"emissions":10692.8},{"id":38469619,"name":"Li Cheng Enterprise Co., Ltd.","sector":"textiles-leather-apparel","type":"Finished Goods - Components","lon":120.59566,"lat":23.71162,"emissions":10692.8},{"id":38469529,"name":"Cheng Horng Industrial Co., Ltd.","sector":"textiles-leather-apparel","type":"Dyeing | Finishing","lon":121.2054,"lat":24.9296,"emissions":10692.8},{"id":38469525,"name":"Taiwan Paiho Ltd.","sector":"textiles-leather-apparel","type":"Dyeing | Finishing | Heat Transfer | Injection Molding | Knitting | Printing | Weaving","lon":120.56245,"lat":24.07166,"emissions":10692.8},{"id":38469520,"name":"Fulltide Enterprise Co., Ltd.","sector":"textiles-leather-apparel","type":"Coating | Dyeing | Finishing | Lamination","lon":121.19773,"lat":25.06428,"emissions":10692.8},{"id":38469602,"name":"Yuan Ling","sector":"textiles-leather-apparel","type":"Coating | Dyeing | Finishing | Knitting | Printing | Weaving","lon":120.56245,"lat":24.07166,"emissions":10692.8},{"id":38469620,"name":"Neng Neng Industrial","sector":"textiles-leather-apparel","type":"Dyeing | Finishing","lon":121.13016,"lat":25.05121,"emissions":10692.8},{"id":38469519,"name":"Freudenberg & Vilene Nonwovens (Taiwan)","sector":"textiles-leather-apparel","type":"Coating | Finishing | Lamination | Nonwoven Processing","lon":121.13667,"lat":24.92421,"emissions":10692.8}]}