{"iso_code":"UKR","generated_at":"2026-06-02T15:38:48-03:00","gas":"co2e_100yr","sectors":["power","fossil-fuel-operations","manufacturing","mineral-extraction"],"assets":[{"id":53059178,"name":"Ukraine_Dnieper - Donets_Conventional onshore","sector":"oil-and-gas-production","type":"","lon":32.82891,"lat":49.84124,"emissions":10402136.0},{"id":714528,"name":"Starobesheve power station","sector":"electricity-generation","type":"coal, oil","lon":38.0054,"lat":47.8008,"emissions":7485800.0},{"id":1567096,"name":"ArcelorMittal Kryvyi Rih steel plant","sector":"iron-and-steel","type":"BF/BOF","lon":33.39101,"lat":47.87091,"emissions":4527345.9},{"id":25450577,"name":"Zuevskaya power station","sector":"electricity-generation","type":"coal","lon":38.2852,"lat":48.0348,"emissions":4327300.0},{"id":53060021,"name":"Ukraine_Dnieper - Donets_Conventional onshore","sector":"oil-and-gas-transport","type":"","lon":32.82891,"lat":49.84124,"emissions":3574365.8},{"id":710689,"name":"Pokrovs'ke Coal Mine","sector":"coal-mining","type":"Underground","lon":36.99268,"lat":48.25966,"emissions":2729430.2},{"id":42741660,"name":"Metinvest Zaporizhstal steel plant","sector":"iron-and-steel","type":"BF/BOF","lon":35.15372,"lat":47.86434,"emissions":2516606.8},{"id":1567097,"name":"Metallurgical Plant Kametstal","sector":"iron-and-steel","type":"BF/BOF","lon":34.63258,"lat":48.52489,"emissions":2405331.5},{"id":1567098,"name":"Yenakiieve Metallurgical Plant","sector":"iron-and-steel","type":"BF/BOF","lon":38.23268,"lat":48.22145,"emissions":2226136.2},{"id":43765043,"name":"Nikolayev Alumina Refinery","sector":"aluminum","type":"Refinery","lon":31.9524,"lat":46.77549,"emissions":1860212.9},{"id":1567095,"name":"Alchevsk Metallurgical Plant","sector":"iron-and-steel","type":"BF/BOF","lon":38.77075,"lat":48.47134,"emissions":1856802.4},{"id":1567290,"name":"Metinvest Ilyich Iron and Steel Works","sector":"iron-and-steel","type":"BOF","lon":37.59434,"lat":47.14028,"emissions":1776867.3},{"id":16381,"name":"Heroes of Space Coal Mine","sector":"coal-mining","type":"Underground","lon":35.9564,"lat":48.59546,"emissions":1692246.7},{"id":16390,"name":"West Donbass Coal Mine","sector":"coal-mining","type":"Underground","lon":36.09276,"lat":48.53537,"emissions":1310126.5},{"id":53059180,"name":"Ukraine_Karkinitsk_Conventional shelf","sector":"oil-and-gas-production","type":"","lon":33.50047,"lat":45.60169,"emissions":1233869.1},{"id":710031,"name":"Komsomolets Donbassa Coal Mine","sector":"coal-mining","type":"Underground","lon":38.40079,"lat":48.14755,"emissions":1174832.2},{"id":16376,"name":"Dniprovska Coal Mine","sector":"coal-mining","type":"Underground","lon":36.23202,"lat":48.46697,"emissions":1146360.7},{"id":1897946,"name":"Ivano-Frankivskcement Cement Plant","sector":"cement","type":"integrated dry","lon":24.70976,"lat":48.97619,"emissions":1097321.0},{"id":16389,"name":"Steppe (Pershotravensk) Coal Mine","sector":"coal-mining","type":"Underground","lon":36.37507,"lat":48.37592,"emissions":1091772.1},{"id":32439239,"name":"Dyckerhoff Volyn-Cement Plant","sector":"cement","type":"integrated wet","lon":26.26156,"lat":50.54641,"emissions":997725.0},{"id":16383,"name":"M. V. Frunze Coal Mine","sector":"coal-mining","type":"Underground","lon":39.25135,"lat":48.14442,"emissions":970917.4},{"id":16387,"name":"Samarska Coal Mine","sector":"coal-mining","type":"Underground","lon":36.11735,"lat":48.47439,"emissions":928006.3},{"id":16391,"name":"Yuvileyna Coal Mine","sector":"coal-mining","type":"Underground","lon":36.42551,"lat":48.36247,"emissions":873417.7},{"id":16385,"name":"Pavlohradska Coal Mine","sector":"coal-mining","type":"Underground","lon":35.98716,"lat":48.55847,"emissions":873417.7},{"id":3144149,"name":"Ukrtatnafta Kremenchuk Refinery","sector":"oil-and-gas-refining","type":"Medium Conversion","lon":33.46353,"lat":49.16027,"emissions":841072.9},{"id":32439245,"name":"Amvrosiyivka Cement Plant","sector":"cement","type":"integrated wet","lon":38.47436,"lat":47.83279,"emissions":791966.5},{"id":711507,"name":"Ternivska Coal Mine","sector":"coal-mining","type":"Underground","lon":36.05596,"lat":48.52707,"emissions":764240.5},{"id":448416,"name":"Cherkasy power station","sector":"electricity-generation","type":"coal","lon":32.0674,"lat":49.3905,"emissions":645920.0},{"id":45257156,"name":"Odessa Portside Fertilizers","sector":"chemicals","type":"ammonia","lon":31.10268,"lat":46.6265,"emissions":617116.8},{"id":715180,"name":"Kyiv CHP-5 power station","sector":"electricity-generation","type":"gas","lon":30.5692,"lat":50.3933,"emissions":610480.0},{"id":25455131,"name":"Severodonetsk CHP power station","sector":"electricity-generation","type":"coal","lon":38.4532,"lat":48.9374,"emissions":563330.0},{"id":710051,"name":"Krasnolymanska Coal Mine","sector":"coal-mining","type":"Underground","lon":37.24239,"lat":48.36295,"emissions":545886.0},{"id":1897936,"name":"Dyckerhoff Yugcement Cement Plant","sector":"cement","type":"integrated dry","lon":31.75724,"lat":47.17121,"emissions":541092.5},{"id":4401801,"name":"Trypilska power station","sector":"electricity-generation","type":"gas, coal","lon":30.7467,"lat":50.1334,"emissions":523290.0},{"id":715181,"name":"Kyiv CHP-6 power station","sector":"electricity-generation","type":"gas","lon":30.6623,"lat":50.5317,"emissions":519990.0},{"id":45257037,"name":"Azot Cherkassy Fertilizers","sector":"chemicals","type":"ammonia","lon":32.12137,"lat":49.40754,"emissions":512153.7},{"id":1567291,"name":"DCH Dnipro Metallurgical Plant","sector":"iron-and-steel","type":"BOF","lon":34.9781,"lat":48.48079,"emissions":508384.9},{"id":43160517,"name":"Zasyadko Coal Mine","sector":"coal-mining","type":"Underground","lon":37.78944,"lat":48.05222,"emissions":504470.4},{"id":1897941,"name":"Kryvyi Rih Cement Plant","sector":"cement","type":"integrated dry","lon":33.43957,"lat":47.87295,"emissions":493617.5},{"id":16382,"name":"Luhanske Coal Mine","sector":"coal-mining","type":"Underground","lon":39.17453,"lat":48.55185,"emissions":469182.5},{"id":448418,"name":"Darnytska power station","sector":"electricity-generation","type":"coal","lon":30.6429,"lat":50.4478,"emissions":461670.0},{"id":45257069,"name":"Dneprazot Fertilizers","sector":"chemicals","type":"ammonia","lon":34.65617,"lat":48.4926,"emissions":444217.7},{"id":711625,"name":"V. V. Vakhrushev Coal Mine","sector":"coal-mining","type":"Underground","lon":39.1849,"lat":48.15864,"emissions":421178.8},{"id":25452528,"name":"Dobrotvir power station","sector":"electricity-generation","type":"coal","lon":24.3747,"lat":50.2143,"emissions":372410.0},{"id":16377,"name":"Dovzhanska-Kapitalna Coal Mine","sector":"coal-mining","type":"Underground","lon":39.72364,"lat":48.01452,"emissions":361486.8},{"id":710707,"name":"Progress Coal Mine","sector":"coal-mining","type":"Underground","lon":38.60121,"lat":48.08099,"emissions":361486.8},{"id":16386,"name":"Red Partisan Coal Mine","sector":"coal-mining","type":"Underground","lon":39.80733,"lat":48.06176,"emissions":353875.2},{"id":43160470,"name":"Bilozerskaya Coal Mine","sector":"coal-mining","type":"Underground","lon":37.0348,"lat":48.5183,"emissions":332990.5},{"id":710558,"name":"Novogrodovskaya No 1-3 Coal Mine","sector":"coal-mining","type":"Underground","lon":37.30912,"lat":48.22264,"emissions":322072.8},{"id":45257171,"name":"Rivneazot Fertilizers","sector":"chemicals","type":"ammonia","lon":26.16001,"lat":50.71801,"emissions":316511.8},{"id":1897938,"name":"Podilskyi Cement Plant","sector":"cement","type":"integrated dry","lon":26.606,"lat":48.75177,"emissions":275201.6},{"id":708891,"name":"Chervonogradska Coal Mine","sector":"coal-mining","type":"Underground","lon":24.19188,"lat":50.39897,"emissions":272943.0},{"id":25455683,"name":"Balaklava power station","sector":"electricity-generation","type":"gas","lon":33.6028,"lat":44.5532,"emissions":270360.0},{"id":25450548,"name":"Tavri power station","sector":"electricity-generation","type":"gas","lon":34.2238,"lat":44.9427,"emissions":267210.0},{"id":708706,"name":"Bilorichenska Coal Mine","sector":"coal-mining","type":"Underground","lon":39.07142,"lat":48.45553,"emissions":204977.6},{"id":16388,"name":"Stepova Coal Mine","sector":"coal-mining","type":"Underground","lon":24.12433,"lat":50.3749,"emissions":196519.0},{"id":709065,"name":"Dobropilska Coal Mine","sector":"coal-mining","type":"Underground","lon":37.09834,"lat":48.46727,"emissions":194697.5},{"id":4402655,"name":"Chernihiv power station","sector":"electricity-generation","type":"coal, gas","lon":31.2602,"lat":51.455,"emissions":191870.0},{"id":32439243,"name":"Kamyansky Cement Plant","sector":"cement","type":"integrated dry","lon":34.58405,"lat":48.52415,"emissions":190869.3},{"id":43161676,"name":"Kharkovskaya Coal Mine","sector":"coal-mining","type":"Underground","lon":39.51792,"lat":48.0524,"emissions":188733.4},{"id":53060023,"name":"Ukraine_Karkinitsk_Conventional shelf","sector":"oil-and-gas-transport","type":"","lon":33.50047,"lat":45.60169,"emissions":178309.9},{"id":25453893,"name":"Kremenchuk CHP power station","sector":"electricity-generation","type":"gas","lon":33.4474,"lat":49.1708,"emissions":165750.0},{"id":710000,"name":"Kholodnaya Balka","sector":"coal-mining","type":"Underground","lon":38.05222,"lat":48.00184,"emissions":163765.8},{"id":709633,"name":"Ilovayskaya Coal Mine","sector":"coal-mining","type":"Underground","lon":38.22282,"lat":47.95496,"emissions":147389.2},{"id":450431,"name":"Shostkinska power station","sector":"electricity-generation","type":"oil, gas","lon":33.4554,"lat":51.8857,"emissions":139674.0},{"id":32439248,"name":"Bakhchisarai Stroyindustria Cement Plant","sector":"cement","type":"integrated wet","lon":33.86488,"lat":44.77537,"emissions":137332.4},{"id":710909,"name":"Samsonivska-Zakhidna Coal Mine","sector":"coal-mining","type":"Underground","lon":39.58525,"lat":48.38107,"emissions":136471.5},{"id":709935,"name":"Kalinovskaya-Vostochnaya","sector":"coal-mining","type":"Underground","lon":38.02051,"lat":48.06199,"emissions":125553.8},{"id":43163656,"name":"Kalinovskaya-Vostochnaya Coal Mine","sector":"coal-mining","type":"Underground","lon":38.02051,"lat":48.06199,"emissions":125553.8},{"id":43163655,"name":"Kirova Coal Mine (Ukraine)","sector":"coal-mining","type":"Underground","lon":38.07947,"lat":48.04266,"emissions":125553.8},{"id":43158537,"name":"Kryviy Rih Mine","sector":"iron-mining","type":"iron-mine","lon":33.32781,"lat":47.85633,"emissions":123210.0},{"id":3673142,"name":"Zhovtnevyi District","sector":"aluminum","type":"Refinery","lon":32.2279,"lat":46.94527,"emissions":123153.3},{"id":710557,"name":"Novodonetskaya Coal Mine","sector":"coal-mining","type":"Underground","lon":37.0032,"lat":48.55899,"emissions":120094.9},{"id":709951,"name":"Kapitalna Coal Mine","sector":"coal-mining","type":"Underground","lon":37.30729,"lat":48.32803,"emissions":103718.3},{"id":43160503,"name":"Pivdennodonbaska 1 Coal Mine","sector":"coal-mining","type":"Underground","lon":37.28928,"lat":47.79117,"emissions":98023.1},{"id":708449,"name":"Almaznaya Coal Mine","sector":"coal-mining","type":"Underground","lon":37.07183,"lat":48.48204,"emissions":87341.8},{"id":43158540,"name":"Poltava Mine","sector":"iron-mining","type":"iron-mine","lon":33.6661,"lat":49.05027,"emissions":77941.0},{"id":452879,"name":"Saki power station","sector":"electricity-generation","type":"gas","lon":33.5535,"lat":45.1366,"emissions":75222.0},{"id":1567099,"name":"Interpipe Steel Plant","sector":"iron-and-steel","type":"EAF","lon":35.09271,"lat":48.49313,"emissions":69760.3},{"id":43158536,"name":"Kozatska Mine","sector":"iron-mining","type":"iron-mine","lon":33.46094,"lat":48.03635,"emissions":57196.2}]}