{"iso_code":"USA","generated_at":"2026-06-02T15:38:49-03:00","gas":"co2e_100yr","sectors":["power","fossil-fuel-operations","manufacturing","mineral-extraction"],"assets":[{"id":53059122,"name":"Spraberry Lower Light Oil TX","sector":"oil-and-gas-production","type":"","lon":-101.86812,"lat":31.9532,"emissions":68136935.7},{"id":53058916,"name":"Marcellus Dry Gas PA","sector":"oil-and-gas-production","type":"","lon":-78.0921,"lat":41.0408,"emissions":47022582.4},{"id":53059759,"name":"Marcellus Dry Gas PA","sector":"oil-and-gas-transport","type":"","lon":-78.0921,"lat":41.0408,"emissions":41011479.1},{"id":53058562,"name":"Bakken Light Oil ND","sector":"oil-and-gas-production","type":"","lon":-102.9314,"lat":47.96915,"emissions":34608462.3},{"id":53058448,"name":"Alaska North Slope Wet Gas AK","sector":"oil-and-gas-production","type":"","lon":-148.93497,"lat":70.31618,"emissions":27647288.0},{"id":53059291,"name":"Alaska North Slope Wet Gas AK","sector":"oil-and-gas-transport","type":"","lon":-148.93497,"lat":70.31618,"emissions":27314827.2},{"id":53059125,"name":"Spraberry Lower Wet Gas TX","sector":"oil-and-gas-production","type":"","lon":-101.79703,"lat":31.81474,"emissions":25946658.0},{"id":44375670,"name":"Georgia Pacific - Brewton - AL","sector":"pulp-and-paper","type":"Pulp misc. (known types include chemical wood pulp)","lon":-87.11109,"lat":31.07733,"emissions":25700398.7},{"id":53058802,"name":"Haynesville-Bossier Dry Gas LA","sector":"oil-and-gas-production","type":"","lon":-93.62223,"lat":32.22329,"emissions":22082334.6},{"id":53058578,"name":"Bone Spring Light Oil NM","sector":"oil-and-gas-production","type":"","lon":-103.7434,"lat":32.37085,"emissions":21585490.9},{"id":53059645,"name":"Haynesville-Bossier Dry Gas LA","sector":"oil-and-gas-transport","type":"","lon":-93.62223,"lat":32.22329,"emissions":19877804.8},{"id":53059272,"name":"Wolfcamp Ultra-Light Oil NM","sector":"oil-and-gas-production","type":"","lon":-103.75915,"lat":32.18175,"emissions":19417611.2},{"id":25448871,"name":"James H Miller Jr","sector":"electricity-generation","type":"coal","lon":-87.0597,"lat":33.6319,"emissions":18572000.0},{"id":53058473,"name":"Anandarko - Hugoton Wet Gas OK","sector":"oil-and-gas-production","type":"","lon":-98.5853,"lat":35.86675,"emissions":14630967.9},{"id":53059273,"name":"Wolfcamp Ultra-Light Oil TX","sector":"oil-and-gas-production","type":"","lon":-103.54179,"lat":31.61339,"emissions":14582682.8},{"id":53058917,"name":"Marcellus Dry Gas WV","sector":"oil-and-gas-production","type":"","lon":-80.87333,"lat":39.28571,"emissions":14378926.1},{"id":53059270,"name":"Wolfcamp Light Oil TX","sector":"oil-and-gas-production","type":"","lon":-103.54179,"lat":31.61339,"emissions":14285709.8},{"id":25449255,"name":"Labadie","sector":"electricity-generation","type":"coal","lon":-90.8377,"lat":38.5622,"emissions":14196100.0},{"id":53059275,"name":"Wolfcamp Wet Gas TX","sector":"oil-and-gas-production","type":"","lon":-103.70013,"lat":31.639,"emissions":13952711.8},{"id":53058739,"name":"Eagle Ford Ultra-Light Oil TX","sector":"oil-and-gas-production","type":"","lon":-98.27495,"lat":28.81049,"emissions":13747791.4},{"id":53058737,"name":"Eagle Ford Light Oil TX","sector":"oil-and-gas-production","type":"","lon":-98.29278,"lat":28.99906,"emissions":13716565.4},{"id":25448961,"name":"Monroe (MI)","sector":"electricity-generation","type":"coal, oil","lon":-83.3464,"lat":41.8906,"emissions":13282100.0},{"id":53059760,"name":"Marcellus Dry Gas WV","sector":"oil-and-gas-transport","type":"","lon":-80.87333,"lat":39.28571,"emissions":12715942.2},{"id":53058941,"name":"Midland - Permian Light Oil TX","sector":"oil-and-gas-production","type":"","lon":-101.99603,"lat":32.13261,"emissions":12290026.4},{"id":25449377,"name":"Prairie State Generating Station","sector":"electricity-generation","type":"coal","lon":-89.6669,"lat":38.2792,"emissions":11501100.0},{"id":25449409,"name":"Oak Grove (TX)","sector":"electricity-generation","type":"coal","lon":-96.489,"lat":31.1813,"emissions":11116000.0},{"id":53058731,"name":"Denver Wet Gas CO","sector":"oil-and-gas-production","type":"","lon":-104.43212,"lat":40.23311,"emissions":11083707.0},{"id":25449001,"name":"Bowen","sector":"electricity-generation","type":"coal, oil","lon":-84.9222,"lat":34.1256,"emissions":10939500.0},{"id":1567144,"name":"U.S. Steel Gary Works","sector":"iron-and-steel","type":"BF/BOF","lon":-87.33828,"lat":41.61855,"emissions":10875917.0},{"id":53058803,"name":"Haynesville-Bossier Dry Gas TX","sector":"oil-and-gas-production","type":"","lon":-94.31245,"lat":32.05981,"emissions":10851473.4},{"id":25448879,"name":"John E Amos","sector":"electricity-generation","type":"coal","lon":-81.8233,"lat":38.4731,"emissions":10821100.0},{"id":53058733,"name":"Eagle Ford Condensate TX","sector":"oil-and-gas-production","type":"","lon":-98.79522,"lat":28.53884,"emissions":10820502.8},{"id":25449044,"name":"Ghent","sector":"electricity-generation","type":"coal","lon":-85.0374,"lat":38.7485,"emissions":10812000.0},{"id":25449078,"name":"FirstEnergy Harrison Power Station","sector":"electricity-generation","type":"coal","lon":-80.3325,"lat":39.3842,"emissions":10722100.0},{"id":25449020,"name":"W A Parish","sector":"electricity-generation","type":"coal, gas","lon":-95.6326,"lat":29.479,"emissions":10680700.0},{"id":53059201,"name":"Utica Dry Gas OH","sector":"oil-and-gas-production","type":"","lon":-80.95734,"lat":40.138,"emissions":10489446.6},{"id":25449166,"name":"Gibson","sector":"electricity-generation","type":"coal","lon":-87.7658,"lat":38.3722,"emissions":10286000.0},{"id":25449242,"name":"Martin Lake","sector":"electricity-generation","type":"coal","lon":-94.5706,"lat":32.2606,"emissions":10070000.0},{"id":53059646,"name":"Haynesville-Bossier Dry Gas TX","sector":"oil-and-gas-transport","type":"","lon":-94.31245,"lat":32.05981,"emissions":9972867.1},{"id":53058766,"name":"Fort Worth Dry Gas TX","sector":"oil-and-gas-production","type":"","lon":-98.0,"lat":32.82454,"emissions":9938522.4},{"id":53060044,"name":"Utica Dry Gas OH","sector":"oil-and-gas-transport","type":"","lon":-80.95734,"lat":40.138,"emissions":9791194.4},{"id":25449230,"name":"Cumberland (TN)","sector":"electricity-generation","type":"coal, gas","lon":-87.6539,"lat":36.3903,"emissions":9765000.0},{"id":25449119,"name":"Gavin Power, LLC","sector":"electricity-generation","type":"coal","lon":-82.1158,"lat":38.9347,"emissions":9255200.0},{"id":32441037,"name":"Cleveland-Cliffs Indiana Harbor steel plant","sector":"iron-and-steel","type":"BF/BOF,EAF","lon":-87.4356,"lat":41.67188,"emissions":9040985.2},{"id":25449004,"name":"Scherer","sector":"electricity-generation","type":"coal","lon":-83.8075,"lat":33.0606,"emissions":9018500.0},{"id":53059968,"name":"Spraberry Lower Wet Gas TX","sector":"oil-and-gas-transport","type":"","lon":-101.79703,"lat":31.81474,"emissions":8724290.3},{"id":25449203,"name":"Cross","sector":"electricity-generation","type":"coal","lon":-80.1132,"lat":33.3715,"emissions":8628200.0},{"id":53059316,"name":"Anandarko - Hugoton Wet Gas OK","sector":"oil-and-gas-transport","type":"","lon":-98.5853,"lat":35.86675,"emissions":8619044.7},{"id":25448885,"name":"Four Corners","sector":"electricity-generation","type":"coal","lon":-108.4791,"lat":36.6881,"emissions":8547700.0},{"id":25448951,"name":"Coal Creek","sector":"electricity-generation","type":"coal, oil","lon":-101.1571,"lat":47.3777,"emissions":8432400.0},{"id":53059274,"name":"Wolfcamp Wet Gas NM","sector":"oil-and-gas-production","type":"","lon":-103.93896,"lat":32.20572,"emissions":8429089.1},{"id":25448950,"name":"J H Campbell","sector":"electricity-generation","type":"coal, oil","lon":-86.2007,"lat":42.9103,"emissions":8324700.0},{"id":25448977,"name":"H L Spurlock","sector":"electricity-generation","type":"coal","lon":-83.8181,"lat":38.7,"emissions":7945400.0},{"id":25448913,"name":"Roxboro","sector":"electricity-generation","type":"coal, oil","lon":-79.0731,"lat":36.4833,"emissions":7878000.0},{"id":53058734,"name":"Eagle Ford Dry Gas TX","sector":"oil-and-gas-production","type":"","lon":-98.92256,"lat":28.39155,"emissions":7763580.1},{"id":25449031,"name":"Rockport","sector":"electricity-generation","type":"coal","lon":-87.0372,"lat":37.9256,"emissions":7474600.0},{"id":25449057,"name":"Fayette Power Project","sector":"electricity-generation","type":"coal","lon":-96.7506,"lat":29.9172,"emissions":7220100.0},{"id":3674449,"name":"Ascend Performance Materials LLC","sector":"other-chemicals","type":"adipic_acid_production","lon":-87.25198,"lat":30.59668,"emissions":7210311.8},{"id":53058725,"name":"Denver Light Oil CO","sector":"oil-and-gas-production","type":"","lon":-104.5824,"lat":40.28465,"emissions":7193428.5},{"id":1753267,"name":"Marathon Galveston Bay Refinery","sector":"oil-and-gas-refining","type":"Deep conversion Cracking-FCC-Resid HC-7","lon":-94.93346,"lat":29.37469,"emissions":7124793.7},{"id":53058567,"name":"Bakken Wet Gas ND","sector":"oil-and-gas-production","type":"","lon":-103.04688,"lat":47.94912,"emissions":7088690.1},{"id":53058459,"name":"Anandarko - Hugoton Dry Gas OK","sector":"oil-and-gas-production","type":"","lon":-98.68178,"lat":35.84607,"emissions":6977487.7},{"id":25448897,"name":"Laramie River Station","sector":"electricity-generation","type":"coal","lon":-104.8825,"lat":42.1089,"emissions":6923100.0},{"id":25449056,"name":"Trimble County","sector":"electricity-generation","type":"coal, gas","lon":-85.4137,"lat":38.5846,"emissions":6909800.0},{"id":40691303,"name":"Cardinal","sector":"electricity-generation","type":"coal","lon":-80.6486,"lat":40.2522,"emissions":6872900.0},{"id":25449055,"name":"Mill Creek (KY)","sector":"electricity-generation","type":"coal, gas","lon":-85.9103,"lat":38.0525,"emissions":6818800.0},{"id":53059965,"name":"Spraberry Lower Light Oil TX","sector":"oil-and-gas-transport","type":"","lon":-101.86812,"lat":31.9532,"emissions":6653020.8},{"id":53058709,"name":"Delaware Light Oil NM","sector":"oil-and-gas-production","type":"","lon":-103.77066,"lat":32.60975,"emissions":6605607.6},{"id":25449068,"name":"Walter Scott Jr Energy Center","sector":"electricity-generation","type":"coal","lon":-95.8408,"lat":41.18,"emissions":6536780.0},{"id":25449407,"name":"West County Energy Center","sector":"electricity-generation","type":"gas","lon":-80.3747,"lat":26.6986,"emissions":6533800.0},{"id":25449086,"name":"Gerald Gentleman","sector":"electricity-generation","type":"coal","lon":-101.1408,"lat":41.0808,"emissions":6521500.0},{"id":53060118,"name":"Wolfcamp Wet Gas TX","sector":"oil-and-gas-transport","type":"","lon":-103.70013,"lat":31.639,"emissions":6499871.2},{"id":25457152,"name":"Crystal River","sector":"electricity-generation","type":"coal, gas","lon":-82.6977,"lat":28.9656,"emissions":6481500.0},{"id":53058584,"name":"Bone Spring Wet Gas NM","sector":"oil-and-gas-production","type":"","lon":-103.86133,"lat":32.34103,"emissions":6452462.0},{"id":53058447,"name":"Alaska North Slope Medium Oil AK","sector":"oil-and-gas-production","type":"","lon":-149.5091,"lat":70.34304,"emissions":6418941.6},{"id":53058920,"name":"Marcellus Wet Gas WV","sector":"oil-and-gas-production","type":"","lon":-80.87333,"lat":39.28571,"emissions":6280643.0},{"id":25448865,"name":"Barry","sector":"electricity-generation","type":"coal, gas","lon":-88.0103,"lat":31.0069,"emissions":6196000.0},{"id":25449106,"name":"Sherburne County","sector":"electricity-generation","type":"coal","lon":-93.8931,"lat":45.3808,"emissions":6180700.0},{"id":25449076,"name":"Victor J Daniel Jr","sector":"electricity-generation","type":"gas, coal","lon":-88.5553,"lat":30.5322,"emissions":6151800.0},{"id":25449143,"name":"Jim Bridger","sector":"electricity-generation","type":"gas, coal","lon":-108.7875,"lat":41.7378,"emissions":6131800.0}]}