{"iso_code":"VGB","generated_at":"2026-06-02T14:21:23-03:00","gas":"co2e_100yr","sectors":["power","fossil-fuel-operations","manufacturing","mineral-extraction","transportation"],"assets":[{"id":2802622,"name":"Port Purcell","sector":"international-shipping","type":"","lon":-64.60555,"lat":18.42069,"emissions":146083.7},{"id":1934882,"name":"Port Purcell","sector":"domestic-shipping","type":"","lon":-64.60555,"lat":18.42069,"emissions":106144.2},{"id":1988946,"name":"Virgin Gorda","sector":"domestic-shipping","type":"","lon":-64.38583,"lat":18.49805,"emissions":98622.7},{"id":3600821,"name":"Tortola District","sector":"road-transportation","type":"","lon":-64.64181,"lat":18.42,"emissions":38358.4},{"id":2802623,"name":"Virgin Gorda","sector":"international-shipping","type":"","lon":-64.38583,"lat":18.49805,"emissions":21694.2},{"id":3166495,"name":"Terrance B. Lettsome International Airport","sector":"international-aviation","type":"international","lon":-64.54171,"lat":18.44549,"emissions":18914.4},{"id":3600822,"name":"Virgin Gorda District","sector":"road-transportation","type":"","lon":-64.4557,"lat":18.48208,"emissions":6630.6},{"id":38888107,"name":"Unknown name","sector":"international-shipping","type":"","lon":-64.4376,"lat":18.4526,"emissions":2548.0},{"id":38904986,"name":"Unknown name","sector":"domestic-shipping","type":"","lon":-64.6023,"lat":18.3552,"emissions":1651.8},{"id":3600818,"name":"Anegada District","sector":"road-transportation","type":"","lon":-64.31958,"lat":18.71889,"emissions":891.0},{"id":3600819,"name":"Jost Van Dyke District","sector":"road-transportation","type":"","lon":-64.74903,"lat":18.44694,"emissions":636.1},{"id":3600820,"name":"Other Islands District","sector":"road-transportation","type":"","lon":-64.48042,"lat":18.38778,"emissions":219.6},{"id":3169769,"name":"Virgin Gorda Airport","sector":"international-aviation","type":"international","lon":-64.42793,"lat":18.44663,"emissions":192.5}]}