{"iso_code":"ZAF","generated_at":"2026-06-02T15:38:54-03:00","gas":"co2e_100yr","sectors":["power","fossil-fuel-operations","manufacturing","mineral-extraction"],"assets":[{"id":25453872,"name":"Medupi power station","sector":"electricity-generation","type":"coal","lon":27.5638,"lat":-23.705,"emissions":21265000.0},{"id":25450906,"name":"Majuba power station","sector":"electricity-generation","type":"coal","lon":29.771,"lat":-27.1006,"emissions":20898000.0},{"id":25450905,"name":"Lethabo power station","sector":"electricity-generation","type":"coal","lon":27.9769,"lat":-26.742,"emissions":19187000.0},{"id":25450908,"name":"Matla power station","sector":"electricity-generation","type":"coal","lon":29.1415,"lat":-26.2813,"emissions":19095000.0},{"id":25450902,"name":"Kendal power station","sector":"electricity-generation","type":"coal","lon":28.9688,"lat":-26.0903,"emissions":18354000.0},{"id":25454015,"name":"Kusile power station","sector":"electricity-generation","type":"coal","lon":28.9249,"lat":-25.9201,"emissions":17834000.0},{"id":25450907,"name":"Matimba power station","sector":"electricity-generation","type":"coal","lon":27.6108,"lat":-23.6688,"emissions":17790000.0},{"id":25450899,"name":"Duvha power station","sector":"electricity-generation","type":"coal","lon":29.3397,"lat":-25.9613,"emissions":17784000.0},{"id":25450904,"name":"Kriel power station","sector":"electricity-generation","type":"coal","lon":29.1785,"lat":-26.2539,"emissions":15235000.0},{"id":25450910,"name":"Tutuka power station","sector":"electricity-generation","type":"coal","lon":29.3524,"lat":-26.7772,"emissions":13886000.0},{"id":25450897,"name":"Arnot power station","sector":"electricity-generation","type":"coal","lon":29.792,"lat":-25.9438,"emissions":10106700.0},{"id":16311,"name":"Grootegeluk Coal Mine","sector":"coal-mining","type":"Surface","lon":27.56669,"lat":-23.65714,"emissions":7541389.6},{"id":25450901,"name":"Hendrina power station","sector":"electricity-generation","type":"coal","lon":29.6016,"lat":-26.032,"emissions":7474400.0},{"id":25450898,"name":"Camden power station","sector":"electricity-generation","type":"coal","lon":30.0901,"lat":-26.6215,"emissions":6939600.0},{"id":1567185,"name":"ArcelorMittal Vanderbijlpark Steel Works","sector":"iron-and-steel","type":"BF/BOF","lon":27.81697,"lat":-26.66171,"emissions":4161451.3},{"id":25450900,"name":"Grootvlei power station","sector":"electricity-generation","type":"coal","lon":28.4978,"lat":-26.7685,"emissions":3827700.0},{"id":43160105,"name":"Optimum Coal Mine","sector":"coal-mining","type":"Underground & Surface","lon":29.61149,"lat":-26.00485,"emissions":2804332.2},{"id":451018,"name":"Secunda power station","sector":"electricity-generation","type":"coal, other_fossil, gas","lon":29.1676,"lat":-26.5633,"emissions":2721800.0},{"id":1567184,"name":"ArcelorMittal Newcastle Steel Works","sector":"iron-and-steel","type":"BF/BOF","lon":30.00726,"lat":-27.7157,"emissions":2351963.1},{"id":16331,"name":"Twistdraai Thubelisha Coal Mine","sector":"coal-mining","type":"Underground","lon":29.28571,"lat":-26.46329,"emissions":2040283.9},{"id":16323,"name":"New Vaal Coal Mine","sector":"coal-mining","type":"Surface","lon":27.95978,"lat":-26.72036,"emissions":1829846.5},{"id":16310,"name":"Goedgevonden Coal Mine","sector":"coal-mining","type":"Surface","lon":29.07316,"lat":-26.09972,"emissions":1614570.5},{"id":3673154,"name":"Richards Bay, Hillside aluminium plant","sector":"aluminum","type":"Smelting","lon":32.03106,"lat":-28.76698,"emissions":1602047.9},{"id":16646,"name":"Shondoni Coal Mine","sector":"coal-mining","type":"Underground","lon":29.05364,"lat":-26.46751,"emissions":1517440.8},{"id":16336,"name":"Zibulo Coal Mine","sector":"coal-mining","type":"Underground & Surface","lon":29.04073,"lat":-26.04373,"emissions":1478615.7},{"id":16330,"name":"Syferfontein Coal Mine","sector":"coal-mining","type":"Underground","lon":29.20106,"lat":-26.40975,"emissions":1432795.8},{"id":16315,"name":"Khutala Coal Mine","sector":"coal-mining","type":"Underground & Surface","lon":29.00342,"lat":-26.124,"emissions":1412331.7},{"id":25451163,"name":"Kelvin power station","sector":"electricity-generation","type":"coal","lon":28.194,"lat":-26.1158,"emissions":1317300.0},{"id":16691,"name":"Impumelelo Coal Mine","sector":"coal-mining","type":"Underground","lon":29.14501,"lat":-26.58145,"emissions":1297560.7},{"id":3164482,"name":"Tweefontein Coal Mine","sector":"coal-mining","type":"Underground & Surface","lon":29.16133,"lat":-26.03839,"emissions":1264746.9},{"id":33999217,"name":"ZAF-Gert Sibande_ammonia","sector":"chemicals","type":"ammonia","lon":29.93017,"lat":-26.67118,"emissions":1240800.0},{"id":709974,"name":"Katlego Operations","sector":"coal-mining","type":"Underground & Surface","lon":29.29836,"lat":-26.22371,"emissions":1239293.5},{"id":16319,"name":"Matla Coal Mine","sector":"coal-mining","type":"Underground","lon":29.12681,"lat":-26.26345,"emissions":1170407.9},{"id":732018,"name":"Sasol Polymers Secunda, Secunda ","sector":"petrochemical-steam-cracking","type":"Naphtha","lon":29.15591,"lat":-26.55096,"emissions":1151304.6},{"id":16312,"name":"Impunzi Complex","sector":"coal-mining","type":"Underground & Surface","lon":29.23058,"lat":-26.10868,"emissions":1116744.6},{"id":16322,"name":"New Denmark Coal Mine","sector":"coal-mining","type":"Underground","lon":29.30901,"lat":-26.74005,"emissions":1037348.6},{"id":32439412,"name":"Ditsobotla Cement Plant","sector":"cement","type":"integrated dry","lon":25.99532,"lat":-26.18424,"emissions":832747.9},{"id":32439416,"name":"Lichtenburg Cement Plant","sector":"cement","type":"integrated dry","lon":26.1841,"lat":-26.13371,"emissions":830522.2},{"id":16306,"name":"Bosjesspruit Coal Mine","sector":"coal-mining","type":"Underground","lon":29.19982,"lat":-26.56283,"emissions":823227.4},{"id":16320,"name":"Middelburg Mining Services (MMS)","sector":"coal-mining","type":"Surface","lon":29.46056,"lat":-25.89944,"emissions":820740.0},{"id":3164455,"name":"Iyanga Coal Mine Cluster","sector":"coal-mining","type":"Surface","lon":28.87832,"lat":-26.02646,"emissions":807285.2},{"id":3144113,"name":"Astron Capetown Refinery","sector":"oil-and-gas-refining","type":"Medium Conversion","lon":18.53019,"lat":-33.84106,"emissions":795913.9},{"id":1753782,"name":"Natref Sasolburg Refinery","sector":"oil-and-gas-refining","type":"Medium Conversion","lon":27.85592,"lat":-26.80628,"emissions":771499.5},{"id":32439414,"name":"Sephaku Ditsobotla Cement Plant","sector":"cement","type":"integrated dry","lon":25.85141,"lat":-26.14469,"emissions":687791.0},{"id":1898170,"name":"Slurry Cement Plant","sector":"cement","type":"integrated dry","lon":25.84326,"lat":-25.81551,"emissions":659685.7},{"id":3164475,"name":"Overlooked Mine","sector":"coal-mining","type":"Underground & Surface","lon":29.52799,"lat":-26.23772,"emissions":645828.2},{"id":32439415,"name":"Ray Nkonyeni Cement Plant","sector":"cement","type":"integrated dry","lon":30.34639,"lat":-30.67523,"emissions":630424.5},{"id":25452132,"name":"SASOL ONE","sector":"electricity-generation","type":"coal, gas","lon":27.8483,"lat":-26.8223,"emissions":622020.0},{"id":25453592,"name":"Ankerlig power station","sector":"electricity-generation","type":"oil","lon":18.4615,"lat":-33.5895,"emissions":592840.0},{"id":710053,"name":"Kriel Coal Mine","sector":"coal-mining","type":"Underground","lon":29.13604,"lat":-26.22578,"emissions":565401.9},{"id":16313,"name":"Isibonelo Coal Mine","sector":"coal-mining","type":"Surface","lon":29.20891,"lat":-26.43528,"emissions":544917.5},{"id":16325,"name":"Palesa Coal Mine","sector":"coal-mining","type":"Surface","lon":28.77654,"lat":-25.52645,"emissions":542226.6},{"id":1567248,"name":"Scaw Metals Group Germiston plant","sector":"iron-and-steel","type":"DRI-EAF","lon":28.16365,"lat":-26.27359,"emissions":493095.0},{"id":710020,"name":"Klipspruit Coal Mine","sector":"coal-mining","type":"Surface","lon":29.06154,"lat":-25.99133,"emissions":484371.1},{"id":3164442,"name":"Dorstfontein Complex","sector":"coal-mining","type":"Underground & Surface","lon":29.2946,"lat":-26.22349,"emissions":478241.3},{"id":16647,"name":"Ukufisa Colliery","sector":"coal-mining","type":"Surface","lon":28.51243,"lat":-26.24262,"emissions":478241.3},{"id":3164486,"name":"Verkeerdepan Coal Mine","sector":"coal-mining","type":"Surface","lon":30.04346,"lat":-26.14502,"emissions":478241.3},{"id":43161777,"name":"Tumelo Coal Mine","sector":"coal-mining","type":"Surface","lon":29.532,"lat":-26.23324,"emissions":478241.3},{"id":43158493,"name":"Richards Bay Mine","sector":"iron-mining","type":"iron-mine","lon":32.35453,"lat":-28.55994,"emissions":466714.0},{"id":32439413,"name":"Delportshoop Cement Plant","sector":"cement","type":"integrated dry","lon":24.21599,"lat":-28.32271,"emissions":417186.8},{"id":16316,"name":"Kiepersol Colliery","sector":"coal-mining","type":"Underground","lon":30.5536,"lat":-27.14095,"emissions":414279.7},{"id":710038,"name":"Koornfontein Coal Mine","sector":"coal-mining","type":"Underground & Surface","lon":29.42458,"lat":-26.1,"emissions":403642.6},{"id":709324,"name":"Graspan Colliery","sector":"coal-mining","type":"Surface","lon":29.41079,"lat":-25.78085,"emissions":403642.6},{"id":43160109,"name":"Stuart Colliery","sector":"coal-mining","type":"Surface","lon":28.77116,"lat":-26.13373,"emissions":403642.6},{"id":1898163,"name":"Thabazimbi Local Municipality Cement Plant","sector":"cement","type":"integrated dry","lon":27.54615,"lat":-24.98356,"emissions":383861.7},{"id":3164449,"name":"Greenside Coal Mine","sector":"coal-mining","type":"Underground","lon":29.18545,"lat":-25.96098,"emissions":378684.6},{"id":16309,"name":"Goedehoop Coal Mine","sector":"coal-mining","type":"Underground","lon":29.40728,"lat":-26.1034,"emissions":362220.1},{"id":43158494,"name":"Sishen Mine","sector":"iron-mining","type":"iron-mine","lon":22.99648,"lat":-27.73806,"emissions":344080.0},{"id":16644,"name":"Khanye Coal Mine","sector":"coal-mining","type":"Surface","lon":28.79526,"lat":-25.77422,"emissions":341750.7},{"id":16995,"name":"Moabsvelden Coal Mine","sector":"coal-mining","type":"Surface","lon":28.85437,"lat":-26.1705,"emissions":340405.3},{"id":16332,"name":"Vlakfontein Coal Mine","sector":"coal-mining","type":"Surface","lon":28.95987,"lat":-26.01222,"emissions":336368.8},{"id":16693,"name":"Rietvlei Colliery","sector":"coal-mining","type":"Surface","lon":29.65338,"lat":-25.66678,"emissions":336368.8},{"id":43160461,"name":"Chilwavhusiku Colliery","sector":"coal-mining","type":"Surface","lon":28.79909,"lat":-25.79062,"emissions":336368.8},{"id":16307,"name":"Delmas Colliery","sector":"coal-mining","type":"Underground","lon":28.82794,"lat":-26.26083,"emissions":329291.0},{"id":25453593,"name":"Gourikwa power station","sector":"electricity-generation","type":"oil","lon":21.9607,"lat":-34.1668,"emissions":327790.0},{"id":3164465,"name":"Middelburg Complex (MBO)","sector":"coal-mining","type":"Surface","lon":29.40299,"lat":-25.81231,"emissions":322914.1},{"id":449120,"name":"Richards Bay Mill power station","sector":"electricity-generation","type":"coal, biomass, gas","lon":31.9934,"lat":-28.7617,"emissions":322380.0},{"id":43158491,"name":"Palabora Mine","sector":"iron-mining","type":"iron-mine","lon":31.13678,"lat":-23.97365,"emissions":302488.0},{"id":16308,"name":"Forzando Complex","sector":"coal-mining","type":"Underground","lon":29.52769,"lat":-26.28687,"emissions":296361.9},{"id":16558,"name":"Khwezela Coal Mine","sector":"coal-mining","type":"Surface","lon":29.15564,"lat":-25.92624,"emissions":296004.6}]}